% pos mode  : Single
% elev mask : 5.0 deg
% ionos opt : Broadcast
% tropo opt : Saastamoinen
% ephemeris : Broadcast
% navi sys  : GPS Galileo QZSS BDS NavIC
%
% (lat/lon/height=WGS84/ellipsoidal,Q=1:fix,2:float,3:sbas,4:dgps,5:single,6:ppp,ns=# of satellites)
%  GPST                  latitude(deg) longitude(deg)  height(m)   Q  ns   sdn(m)   sde(m)   sdu(m)  sdne(m)  sdeu(m)  sdun(m) age(s)  ratio
2023/11/29 10:31:22.000   12.644359167   77.169499184   567.6868   5  32   3.2988   3.2695   7.6423   1.3098   2.6875   1.5413   0.00    0.0
2023/11/29 10:31:23.000   12.644339215   77.169435369   565.9243   5  32   3.2987   3.2696   7.6428   1.3098   2.6879   1.5419   0.00    0.0
2023/11/29 10:31:24.000   12.644327038   77.169367458   567.5537   5  32   3.2986   3.2696   7.6433   1.3098   2.6883   1.5426   0.00    0.0
2023/11/29 10:31:25.000   12.644317398   77.169291223   565.8632   5  32   3.2985   3.2696   7.6438   1.3099   2.6886   1.5433   0.00    0.0
2023/11/29 10:31:26.000   12.644298821   77.169211007   565.3825   5  32   3.2984   3.2697   7.6443   1.3099   2.6890   1.5440   0.00    0.0
2023/11/29 10:31:27.000   12.644296501   77.169128810   567.9601   5  32   3.2983   3.2697   7.6447   1.3099   2.6894   1.5446   0.00    0.0
2023/11/29 10:31:28.000   12.644284868   77.169041999   568.1298   5  31   3.3522   3.2698   7.8893   1.3069   2.6850   1.8856   0.00    0.0
2023/11/29 10:31:29.000   12.644266842   77.168947177   569.0266   5  32   3.2980   3.2698   7.6457   1.3100   2.6902   1.5460   0.00    0.0
2023/11/29 10:31:30.000   12.644252649   77.168847379   567.9708   5  32   3.2979   3.2698   7.6462   1.3100   2.6906   1.5466   0.00    0.0
2023/11/29 10:31:31.000   12.644231629   77.168737942   566.2553   5  32   3.2978   3.2698   7.6467   1.3100   2.6910   1.5473   0.00    0.0
2023/11/29 10:31:32.000   12.644212389   77.168624209   567.9932   5  32   3.2977   3.2699   7.6472   1.3101   2.6914   1.5480   0.00    0.0
2023/11/29 10:31:33.000   12.644188430   77.168518251   569.0741   5  32   3.2976   3.2699   7.6477   1.3101   2.6918   1.5487   0.00    0.0
2023/11/29 10:31:34.000   12.644180800   77.168399688   574.6792   5  31   3.3516   3.2700   7.8925   1.3072   2.6875   1.8891   0.00    0.0
2023/11/29 10:31:35.000   12.644165468   77.168282490   572.0918   5  31   3.3515   3.2700   7.8931   1.3072   2.6879   1.8897   0.00    0.0
2023/11/29 10:31:36.000   12.644133629   77.168176464   572.2749   5  31   3.3514   3.2701   7.8936   1.3073   2.6883   1.8903   0.00    0.0
2023/11/29 10:31:37.000   12.644092896   77.168057911   569.0020   5  31   3.3250   3.3267   7.9898   1.2061   2.9434   1.1905   0.00    0.0
2023/11/29 10:31:38.000   12.644083540   77.167944820   578.5066   5  32   3.2971   3.2701   7.6502   1.3103   2.6937   1.5520   0.00    0.0
2023/11/29 10:31:39.000   12.644052648   77.167796526   568.2448   5  29   3.5005   3.3271   8.4878   1.2214   2.9340   1.3765   0.00    0.0
2023/11/29 10:31:40.000   12.644060680   77.167654429   575.9479   5  29   3.4593   3.3430   8.5422   1.3100   2.8059  -1.2071   0.00    0.0
2023/11/29 10:31:41.000   12.644016892   77.167521193   580.1908   5  31   3.3474   3.2717   7.8724   1.3320   2.6609   1.1582   0.00    0.0
2023/11/29 10:31:42.000   12.643973961   77.167386099   583.8567   5  32   3.2967   3.2703   7.6521   1.3104   2.6953   1.5547   0.00    0.0
2023/11/29 10:31:43.000   12.643970152   77.167255586   581.6849   5  32   3.2966   3.2703   7.6526   1.3104   2.6957   1.5554   0.00    0.0
2023/11/29 10:31:44.000   12.643970263   77.167139179   595.7957   5  30   3.4608   3.2726   8.1758   1.2671   2.6439   2.3287   0.00    0.0
2023/11/29 10:31:45.000   12.643920477   77.167047780   594.3375   5  31   3.3480   3.2939   7.8236   1.3956   2.5756   1.2137   0.00    0.0
2023/11/29 10:31:46.000   12.643911775   77.166947763   580.9604   5  29   3.4578   3.3440   8.5321   1.2597   2.7988   1.3363   0.00    0.0
2023/11/29 10:31:47.000   12.643911809   77.166876561   585.5087   5  29   3.4576   3.3441   8.5328   1.2598   2.7993   1.3373   0.00    0.0
2023/11/29 10:31:48.000   12.643877718   77.166827058   578.4036   5  29   3.4575   3.3441   8.5335   1.2598   2.7998   1.3384   0.00    0.0
2023/11/29 10:31:49.000   12.643882464   77.166783649   582.0532   5  29   3.4573   3.3442   8.5342   1.2598   2.8003   1.3394   0.00    0.0
2023/11/29 10:31:50.000   12.643849405   77.166764767   574.3439   5  28   3.6089   3.3444   8.9446   1.2434   2.7817   2.1371   0.00    0.0
2023/11/29 10:31:51.000   12.643851065   77.166745360   573.1210   5  27   3.6629   3.3455   9.3010   1.2644   2.7436   1.7239   0.00    0.0
2023/11/29 10:31:52.000   12.643871973   77.166723893   581.8004   5  28   3.5211   3.3453   8.8768   1.2815   2.7660   0.4146   0.00    0.0
2023/11/29 10:31:53.000   12.643861430   77.166693512   582.9276   5  29   3.4568   3.3443   8.5369   1.2600   2.8024   1.3435   0.00    0.0
2023/11/29 10:31:54.000   12.643851954   77.166660020   583.6230   5  28   3.5564   3.3437   8.8247   1.3032   2.8059   0.6365   0.00    0.0
2023/11/29 10:31:55.000   12.643829749   77.166613280   578.4976   5  30   3.3847   3.3428   8.2286   1.2884   2.8451   0.4622   0.00    0.0
2023/11/29 10:31:56.000   12.643807689   77.166577583   573.3672   5  29   3.4563   3.3445   8.5390   1.2601   2.8039   1.3466   0.00    0.0
2023/11/29 10:31:57.000   12.643820821   77.166539510   581.5561   5  29   3.4562   3.3438   8.5521   1.3090   2.8147  -1.1883   0.00    0.0
2023/11/29 10:31:58.000   12.643803579   77.166501031   580.0504   5  29   3.4560   3.3438   8.5527   1.3089   2.8152  -1.1872   0.00    0.0
2023/11/29 10:31:59.000   12.643800742   77.166449459   580.8199   5  30   3.3841   3.3430   8.2308   1.2884   2.8469   0.4723   0.00    0.0
2023/11/29 10:32:00.000   12.643768208   77.166384350   568.3580   5  29   3.4557   3.3446   8.5417   1.2602   2.8059   1.3507   0.00    0.0
2023/11/29 10:32:01.000   12.643770401   77.166319564   571.7578   5  28   3.5153   3.3447   8.8809   1.2564   2.8001   1.8423   0.00    0.0
2023/11/29 10:32:02.000   12.643797413   77.166248691   578.9310   5  30   3.3836   3.3432   8.2324   1.2883   2.8482   0.4797   0.00    0.0
2023/11/29 10:32:03.000   12.643774924   77.166189202   572.9294   5  29   3.4553   3.3448   8.5437   1.2603   2.8075   1.3538   0.00    0.0
2023/11/29 10:32:04.000   12.643788170   77.166129942   579.4151   5  30   3.3834   3.3433   8.2334   1.2883   2.8491   0.4846   0.00    0.0
2023/11/29 10:32:05.000   12.643783483   77.166075586   581.4032   5  30   3.3832   3.3433   8.2340   1.2883   2.8495   0.4870   0.00    0.0
2023/11/29 10:32:06.000   12.643754903   77.166027802   574.4355   5  30   3.3831   3.3434   8.2345   1.2883   2.8500   0.4894   0.00    0.0
2023/11/29 10:32:07.000   12.643743357   77.165973332   570.9288   5  29   3.4544   3.3443   8.5579   1.3084   2.8198  -1.1771   0.00    0.0
2023/11/29 10:32:08.000   12.643733963   77.165909798   573.8561   5  30   3.3828   3.3435   8.2356   1.2882   2.8509   0.4942   0.00    0.0
2023/11/29 10:32:09.000   12.643726402   77.165842802   574.9989   5  30   3.3826   3.3435   8.2361   1.2882   2.8513   0.4966   0.00    0.0
2023/11/29 10:32:10.000   12.643708096   77.165775613   572.5854   5  30   3.3825   3.3436   8.2367   1.2882   2.8518   0.4990   0.00    0.0
2023/11/29 10:32:11.000   12.643705380   77.165703189   576.7561   5  30   3.3824   3.3436   8.2372   1.2882   2.8522   0.5013   0.00    0.0
2023/11/29 10:32:12.000   12.643697041   77.165627059   573.9179   5  30   3.3822   3.3437   8.2377   1.2882   2.8527   0.5037   0.00    0.0
2023/11/29 10:32:13.000   12.643689425   77.165550835   573.5502   5  30   3.3821   3.3437   8.2383   1.2882   2.8531   0.5060   0.00    0.0
2023/11/29 10:32:14.000   12.643681055   77.165474082   575.6459   5  30   3.3819   3.3438   8.2388   1.2881   2.8536   0.5083   0.00    0.0
2023/11/29 10:32:15.000   12.643671059   77.165401436   575.6592   5  30   3.3818   3.3438   8.2393   1.2881   2.8540   0.5106   0.00    0.0
2023/11/29 10:32:16.000   12.643664454   77.165326442   573.9954   5  30   3.3816   3.3439   8.2399   1.2881   2.8545   0.5129   0.00    0.0
2023/11/29 10:32:17.000   12.643659947   77.165250149   575.4926   5  30   3.3815   3.3439   8.2404   1.2881   2.8549   0.5152   0.00    0.0
2023/11/29 10:32:18.000   12.643655932   77.165160253   573.7628   5  30   3.3814   3.3440   8.2409   1.2881   2.8554   0.5175   0.00    0.0
2023/11/29 10:32:19.000   12.643644420   77.165068155   572.5406   5  30   3.3812   3.3440   8.2415   1.2881   2.8558   0.5198   0.00    0.0
2023/11/29 10:32:20.000   12.643641886   77.164964160   573.1178   5  30   3.3811   3.3441   8.2420   1.2881   2.8563   0.5221   0.00    0.0
2023/11/29 10:32:21.000   12.643633403   77.164859319   574.5546   5  30   3.3809   3.3441   8.2425   1.2880   2.8567   0.5243   0.00    0.0
2023/11/29 10:32:22.000   12.643618681   77.164745445   574.0100   5  30   3.3808   3.3442   8.2431   1.2880   2.8572   0.5266   0.00    0.0
2023/11/29 10:32:23.000   12.643611191   77.164629145   576.2587   5  30   3.3807   3.3442   8.2436   1.2880   2.8576   0.5288   0.00    0.0
2023/11/29 10:32:24.000   12.643598505   77.164514827   572.5693   5  29   3.4513   3.3451   8.5678   1.3073   2.8285  -1.1579   0.00    0.0
2023/11/29 10:32:25.000   12.643602751   77.164395657   574.9623   5  29   3.4512   3.3451   8.5684   1.3073   2.8290  -1.1567   0.00    0.0
2023/11/29 10:32:26.000   12.643594195   77.164274802   573.9059   5  29   3.4510   3.3452   8.5690   1.3072   2.8296  -1.1556   0.00    0.0
2023/11/29 10:32:27.000   12.643584033   77.164148811   576.6795   5  31   3.3559   3.2095   7.9373   1.4278   2.4648   1.0916   0.00    0.0
2023/11/29 10:32:28.000   12.643578052   77.164016309   576.6041   5  31   3.3557   3.2095   7.9378   1.4278   2.4653   1.0927   0.00    0.0
2023/11/29 10:32:29.000   12.643586819   77.163886170   581.7176   5  31   3.3556   3.2096   7.9383   1.4278   2.4658   1.0938   0.00    0.0
2023/11/29 10:32:30.000   12.643573310   77.163747952   580.1740   5  30   3.4291   3.2116   8.2556   1.3998   2.4142   1.6732   0.00    0.0
2023/11/29 10:32:31.000   12.643555005   77.163609735   577.1586   5  29   3.4912   3.2119   8.5912   1.3907   2.3956   2.0885   0.00    0.0
2023/11/29 10:32:32.000   12.643538172   77.163471544   574.8087   5  32   3.2981   3.1888   7.7286   1.3467   2.5985   1.5249   0.00    0.0
2023/11/29 10:32:33.000   12.643538265   77.163329657   577.0328   5  32   3.2980   3.1889   7.7291   1.3467   2.5989   1.5256   0.00    0.0
2023/11/29 10:32:34.000   12.643534741   77.163187869   574.6339   5  33   3.2754   3.1487   7.4472   1.4169   2.3898   1.7676   0.00    0.0
2023/11/29 10:32:35.000   12.643507713   77.163050360   572.8821   5  33   3.2753   3.1487   7.4477   1.4169   2.3902   1.7682   0.00    0.0
2023/11/29 10:32:36.000   12.643516553   77.162906507   572.1813   5  32   3.3308   3.1489   7.6936   1.4113   2.3799   2.0731   0.00    0.0
2023/11/29 10:32:37.000   12.643525325   77.162768030   576.2926   5  33   3.2751   3.1488   7.4487   1.4170   2.3911   1.7695   0.00    0.0
2023/11/29 10:32:38.000   12.643516949   77.162629192   574.1953   5  33   3.2750   3.1488   7.4492   1.4171   2.3915   1.7701   0.00    0.0
2023/11/29 10:32:39.000   12.643517718   77.162485665   575.1496   5  33   3.2749   3.1489   7.4497   1.4171   2.3919   1.7707   0.00    0.0
2023/11/29 10:32:40.000   12.643506112   77.162354967   575.2383   5  32   3.3304   3.1490   7.6957   1.4115   2.3817   2.0753   0.00    0.0
2023/11/29 10:32:41.000   12.643503866   77.162218084   575.1678   5  33   3.2747   3.1490   7.4506   1.4172   2.3928   1.7719   0.00    0.0
2023/11/29 10:32:42.000   12.643497771   77.162087436   573.9943   5  33   3.2746   3.1490   7.4511   1.4172   2.3932   1.7725   0.00    0.0
2023/11/29 10:32:43.000   12.643510784   77.161954301   579.6424   5  31   3.5505   3.1514   7.9995   1.3638   2.3234   2.6678   0.00    0.0
2023/11/29 10:32:44.000   12.643534509   77.161828733   585.3316   5  32   3.3689   3.1510   7.6932   1.3860   2.3495   2.1589   0.00    0.0
2023/11/29 10:32:45.000   12.643546684   77.161699257   589.3450   5  32   3.3299   3.1492   7.6984   1.4118   2.3839   2.0781   0.00    0.0
2023/11/29 10:32:46.000   12.643515136   77.161571850   582.0810   5  32   3.4059   3.1493   7.6593   1.4070   2.3833   2.1923   0.00    0.0
2023/11/29 10:32:47.000   12.643483391   77.161442620   576.0693   5  33   3.2740   3.1492   7.4536   1.4174   2.3953   1.7755   0.00    0.0
2023/11/29 10:32:48.000   12.643465769   77.161307372   573.6544   5  33   3.2739   3.1492   7.4540   1.4175   2.3957   1.7761   0.00    0.0
2023/11/29 10:32:49.000   12.643472368   77.161165232   576.2725   5  33   3.2738   3.1492   7.4545   1.4175   2.3961   1.7767   0.00    0.0
2023/11/29 10:32:50.000   12.643472369   77.161028862   576.7877   5  33   3.2737   3.1493   7.4550   1.4176   2.3965   1.7773   0.00    0.0
2023/11/29 10:32:51.000   12.643451679   77.160890115   574.4162   5  33   3.2736   3.1493   7.4555   1.4176   2.3969   1.7779   0.00    0.0
2023/11/29 10:32:52.000   12.643444264   77.160756055   575.2646   5  33   3.2735   3.1493   7.4560   1.4176   2.3974   1.7785   0.00    0.0
2023/11/29 10:32:53.000   12.643416957   77.160621734   572.6142   5  33   3.2734   3.1494   7.4565   1.4177   2.3978   1.7791   0.00    0.0
2023/11/29 10:32:54.000   12.643399007   77.160483814   572.9094   5  32   3.3290   3.1495   7.7031   1.4122   2.3879   2.0831   0.00    0.0
2023/11/29 10:32:55.000   12.643373487   77.160363788   575.4515   5  33   3.2732   3.1494   7.4574   1.4178   2.3986   1.7804   0.00    0.0
2023/11/29 10:32:56.000   12.643351613   77.160246789   576.1669   5  32   3.3676   3.1514   7.7004   1.3870   2.3551   2.1659   0.00    0.0
2023/11/29 10:32:57.000   12.643331020   77.160131900   575.4228   5  33   3.2730   3.1495   7.4584   1.4179   2.3994   1.7816   0.00    0.0
2023/11/29 10:32:58.000   12.643299817   77.160016587   575.7810   5  33   3.2729   3.1496   7.4589   1.4179   2.3999   1.7822   0.00    0.0
2023/11/29 10:32:59.000   12.643269856   77.159900355   575.2097   5  31   3.5487   3.1519   8.0095   1.3651   2.3309   2.6758   0.00    0.0
2023/11/29 10:33:00.000   12.643210960   77.159809124   567.9316   5  32   3.3672   3.1515   7.7028   1.3874   2.3570   2.1683   0.00    0.0
2023/11/29 10:33:01.000   12.643222296   77.159697888   578.9692   5  33   3.2725   3.1497   7.4604   1.4180   2.4011   1.7840   0.00    0.0
2023/11/29 10:33:02.000   12.643195791   77.159600183   579.3098   5  33   3.2724   3.1497   7.4609   1.4181   2.4015   1.7846   0.00    0.0
2023/11/29 10:33:03.000   12.643171241   77.159509042   580.1931   5  33   3.2723   3.1497   7.4613   1.4181   2.4019   1.7852   0.00    0.0
2023/11/29 10:33:04.000   12.643124998   77.159423776   573.9015   5  33   3.2722   3.1498   7.4618   1.4181   2.4023   1.7858   0.00    0.0
2023/11/29 10:33:05.000   12.643101676   77.159329429   574.1048   5  33   3.2721   3.1498   7.4623   1.4182   2.4028   1.7864   0.00    0.0
2023/11/29 10:33:06.000   12.643075989   77.159233426   572.5203   5  33   3.2720   3.1498   7.4628   1.4182   2.4032   1.7870   0.00    0.0
2023/11/29 10:33:07.000   12.643050727   77.159130181   573.3261   5  33   3.2719   3.1499   7.4633   1.4183   2.4036   1.7876   0.00    0.0
2023/11/29 10:33:08.000   12.643007946   77.159021079   572.4763   5  33   3.2718   3.1499   7.4638   1.4183   2.4040   1.7882   0.00    0.0
2023/11/29 10:33:09.000   12.642974436   77.158906432   573.4763   5  33   3.2717   3.1499   7.4643   1.4184   2.4044   1.7888   0.00    0.0
2023/11/29 10:33:10.000   12.642926921   77.158788089   577.0648   5  33   3.2716   3.1500   7.4647   1.4184   2.4048   1.7894   0.00    0.0
2023/11/29 10:33:11.000   12.642892110   77.158647867   571.4712   5  33   3.2715   3.1500   7.4652   1.4184   2.4053   1.7900   0.00    0.0
2023/11/29 10:33:12.000   12.642845342   77.158516795   572.8673   5  33   3.2714   3.1500   7.4657   1.4185   2.4057   1.7907   0.00    0.0
2023/11/29 10:33:13.000   12.642802431   77.158381655   572.6248   5  33   3.2713   3.1501   7.4662   1.4185   2.4061   1.7913   0.00    0.0
2023/11/29 10:33:14.000   12.642764626   77.158241194   572.7697   5  33   3.2712   3.1501   7.4667   1.4186   2.4065   1.7919   0.00    0.0
2023/11/29 10:33:15.000   12.642720161   77.158104939   571.2070   5  33   3.2711   3.1502   7.4672   1.4186   2.4069   1.7925   0.00    0.0
2023/11/29 10:33:16.000   12.642672231   77.157978153   572.1134   5  33   3.2710   3.1502   7.4677   1.4187   2.4073   1.7931   0.00    0.0
2023/11/29 10:33:17.000   12.642635448   77.157847347   573.7350   5  33   3.2709   3.1502   7.4682   1.4187   2.4078   1.7937   0.00    0.0
2023/11/29 10:33:18.000   12.642578878   77.157715300   573.1829   5  33   3.2708   3.1503   7.4686   1.4188   2.4082   1.7943   0.00    0.0
2023/11/29 10:33:19.000   12.642533536   77.157582053   573.1511   5  33   3.2707   3.1503   7.4691   1.4188   2.4086   1.7949   0.00    0.0
2023/11/29 10:33:20.000   12.642485893   77.157448019   573.3821   5  33   3.2705   3.1503   7.4696   1.4188   2.4090   1.7955   0.00    0.0
2023/11/29 10:33:21.000   12.642453215   77.157321269   576.4214   5  33   3.2704   3.1504   7.4701   1.4189   2.4094   1.7961   0.00    0.0
2023/11/29 10:33:22.000   12.642394249   77.157178551   580.5020   5  30   3.6502   3.1530   8.4046   1.3528   2.3178   3.0635   0.00    0.0
2023/11/29 10:33:23.000   12.642318657   77.157082912   573.6180   5  32   3.3261   3.1505   7.7185   1.4138   2.4006   2.0993   0.00    0.0
2023/11/29 10:33:24.000   12.642281510   77.156977193   575.9956   5  31   3.3524   3.2042   7.7100   1.2580   2.1686   2.1516   0.00    0.0
2023/11/29 10:33:25.000   12.642261133   77.156875713   580.7840   5  32   3.3214   3.1824   7.5966   1.3238   2.2800   2.0080   0.00    0.0
2023/11/29 10:33:26.000   12.642205601   77.156777208   580.9744   5  32   3.3213   3.1824   7.5970   1.3238   2.2804   2.0085   0.00    0.0
2023/11/29 10:33:27.000   12.642137641   77.156680109   577.2120   5  31   3.3871   3.1831   7.8764   1.3071   2.2505   2.3274   0.00    0.0
2023/11/29 10:33:28.000   12.642088649   77.156578712   575.6275   5  33   3.2697   3.1506   7.4735   1.4192   2.4123   1.8003   0.00    0.0
2023/11/29 10:33:29.000   12.642028650   77.156461938   573.8207   5  33   3.2696   3.1507   7.4740   1.4192   2.4128   1.8010   0.00    0.0
2023/11/29 10:33:30.000   12.641973597   77.156343052   574.7336   5  33   3.2695   3.1507   7.4745   1.4193   2.4132   1.8016   0.00    0.0
2023/11/29 10:33:31.000   12.641915916   77.156219057   575.1813   5  33   3.2694   3.1507   7.4750   1.4193   2.4136   1.8022   0.00    0.0
2023/11/29 10:33:32.000   12.641855601   77.156083720   574.4612   5  33   3.2693   3.1508   7.4755   1.4194   2.4140   1.8028   0.00    0.0
2023/11/29 10:33:33.000   12.641806655   77.155947827   575.3370   5  33   3.2692   3.1508   7.4760   1.4194   2.4144   1.8034   0.00    0.0
2023/11/29 10:33:34.000   12.641770637   77.155819150   580.0995   5  33   3.2691   3.1509   7.4765   1.4195   2.4148   1.8040   0.00    0.0
2023/11/29 10:33:35.000   12.641707842   77.155684758   577.0905   5  32   3.3249   3.1510   7.7249   1.4145   2.4059   2.1060   0.00    0.0
2023/11/29 10:33:36.000   12.641655473   77.155541069   576.1601   5  33   3.2689   3.1509   7.4774   1.4196   2.4157   1.8052   0.00    0.0
2023/11/29 10:33:37.000   12.641593571   77.155393895   573.8758   5  33   3.2688   3.1510   7.4779   1.4196   2.4161   1.8058   0.00    0.0
2023/11/29 10:33:38.000   12.641561145   77.155234583   578.9594   5  32   3.3632   3.1527   7.7256   1.3906   2.3748   2.1905   0.00    0.0
2023/11/29 10:33:39.000   12.641486866   77.155070966   572.3494   5  31   3.5444   3.1532   8.0347   1.3683   2.3495   2.6959   0.00    0.0
2023/11/29 10:33:40.000   12.641489475   77.154894712   584.8164   5  33   3.2685   3.1511   7.4794   1.4198   2.4174   1.8076   0.00    0.0
2023/11/29 10:33:41.000   12.641418609   77.154725048   578.9853   5  32   3.3629   3.1528   7.7274   1.3909   2.3762   2.1922   0.00    0.0
2023/11/29 10:33:42.000   12.641361771   77.154545284   578.6975   5  32   3.3628   3.1528   7.7280   1.3910   2.3767   2.1928   0.00    0.0
2023/11/29 10:33:43.000   12.641315291   77.154358581   578.5937   5  32   3.3627   3.1529   7.7286   1.3911   2.3772   2.1934   0.00    0.0
2023/11/29 10:33:44.000   12.641263755   77.154179192   578.7903   5  32   3.3626   3.1529   7.7293   1.3911   2.3777   2.1940   0.00    0.0
2023/11/29 10:33:45.000   12.641214334   77.153999608   579.6247   5  32   3.3625   3.1529   7.7299   1.3912   2.3782   2.1946   0.00    0.0
2023/11/29 10:33:46.000   12.641163802   77.153822417   578.0004   5  32   3.3624   3.1530   7.7305   1.3913   2.3786   2.1952   0.00    0.0
2023/11/29 10:33:47.000   12.641116968   77.153647135   579.6200   5  32   3.3623   3.1530   7.7311   1.3914   2.3791   2.1957   0.00    0.0
2023/11/29 10:33:48.000   12.641067571   77.153472495   580.4174   5  32   3.3622   3.1530   7.7317   1.3915   2.3796   2.1963   0.00    0.0
2023/11/29 10:33:49.000   12.641016602   77.153294392   579.9666   5  32   3.3621   3.1531   7.7323   1.3916   2.3801   2.1969   0.00    0.0
2023/11/29 10:33:50.000   12.640976981   77.153118790   583.6745   5  33   3.2674   3.1515   7.4843   1.4202   2.4216   1.8136   0.00    0.0
2023/11/29 10:33:51.000   12.640887098   77.152953196   575.1545   5  31   3.5431   3.1536   8.0423   1.3693   2.3552   2.7020   0.00    0.0
2023/11/29 10:33:52.000   12.640852761   77.152783525   575.1021   5  33   3.2672   3.1515   7.4853   1.4203   2.4225   1.8148   0.00    0.0
2023/11/29 10:33:53.000   12.640819540   77.152617473   574.0634   5  33   3.2671   3.1516   7.4858   1.4204   2.4229   1.8154   0.00    0.0
2023/11/29 10:33:54.000   12.640785077   77.152447693   572.5207   5  33   3.2670   3.1516   7.4863   1.4204   2.4233   1.8160   0.00    0.0
2023/11/29 10:33:55.000   12.640736849   77.152280157   570.9022   5  33   3.2669   3.1517   7.4868   1.4205   2.4237   1.8166   0.00    0.0
2023/11/29 10:33:56.000   12.640740151   77.152113672   574.3887   5  33   3.2668   3.1517   7.4873   1.4205   2.4241   1.8172   0.00    0.0
2023/11/29 10:33:57.000   12.640712821   77.151939737   576.2198   5  32   3.3227   3.1518   7.7367   1.4158   2.4156   2.1182   0.00    0.0
2023/11/29 10:33:58.000   12.640682401   77.151771207   571.6962   5  33   3.2666   3.1518   7.4882   1.4206   2.4250   1.8184   0.00    0.0
2023/11/29 10:33:59.000   12.640670739   77.151603437   573.2280   5  32   3.3225   3.1519   7.7377   1.4159   2.4165   2.1193   0.00    0.0
2023/11/29 10:34:00.000   12.640672944   77.151442692   578.1597   5  32   3.3224   3.1519   7.7383   1.4160   2.4170   2.1199   0.00    0.0
2023/11/29 10:34:01.000   12.640665862   77.151312140   579.2551   5  32   3.3609   3.1535   7.7395   1.3926   2.3858   2.2039   0.00    0.0
2023/11/29 10:34:02.000   12.640662234   77.151213013   579.4872   5  28   3.6655   3.2159   9.1916   1.3719   2.4121   2.8652   0.00    0.0
2023/11/29 10:34:03.000   12.640650407   77.151143627   577.6764   5  28   3.6653   3.2159   9.1925   1.3719   2.4127   2.8658   0.00    0.0
2023/11/29 10:34:04.000   12.640657789   77.151099599   580.1526   5  29   3.5708   3.2157   8.7399   1.3840   2.4369   2.4207   0.00    0.0
2023/11/29 10:34:05.000   12.640654455   77.151079056   580.2563   5  29   3.5707   3.2157   8.7407   1.3841   2.4374   2.4213   0.00    0.0
2023/11/29 10:34:06.000   12.640656831   77.151064361   578.2424   5  29   3.5705   3.2158   8.7414   1.3841   2.4379   2.4220   0.00    0.0
2023/11/29 10:34:07.000   12.640654753   77.151045824   578.2169   5  29   3.5704   3.2158   8.7421   1.3841   2.4384   2.4226   0.00    0.0
2023/11/29 10:34:08.000   12.640648522   77.151017533   581.8416   5  29   3.5702   3.2158   8.7428   1.3842   2.4390   2.4232   0.00    0.0
2023/11/29 10:34:09.000   12.640645604   77.150983188   581.5743   5  29   3.5701   3.2159   8.7435   1.3842   2.4395   2.4239   0.00    0.0
2023/11/29 10:34:10.000   12.640674564   77.150935471   588.2047   5  30   3.4153   3.2155   8.3218   1.4039   2.4689   1.7570   0.00    0.0
2023/11/29 10:34:11.000   12.640641042   77.150879973   579.7462   5  29   3.5698   3.2160   8.7450   1.3843   2.4406   2.4252   0.00    0.0
2023/11/29 10:34:12.000   12.640641458   77.150814086   580.9247   5  29   3.5697   3.2160   8.7457   1.3843   2.4411   2.4258   0.00    0.0
2023/11/29 10:34:13.000   12.640653835   77.150749872   585.9230   5  30   3.4497   3.2143   8.2657   1.4188   2.5025   1.8067   0.00    0.0
2023/11/29 10:34:14.000   12.640632190   77.150687726   579.9003   5  29   3.5694   3.2161   8.7472   1.3844   2.4422   2.4271   0.00    0.0
2023/11/29 10:34:15.000   12.640627097   77.150618397   579.4902   5  29   3.5693   3.2161   8.7479   1.3845   2.4427   2.4277   0.00    0.0
2023/11/29 10:34:16.000   12.640621057   77.150540751   578.6242   5  29   3.5692   3.2162   8.7486   1.3845   2.4433   2.4284   0.00    0.0
2023/11/29 10:34:17.000   12.640624536   77.150455251   579.9551   5  29   3.5690   3.2162   8.7493   1.3845   2.4438   2.4290   0.00    0.0
2023/11/29 10:34:18.000   12.640622585   77.150371245   581.1576   5  29   3.5689   3.2162   8.7501   1.3846   2.4444   2.4297   0.00    0.0
2023/11/29 10:34:19.000   12.640616887   77.150292987   579.8651   5  29   3.5688   3.2163   8.7508   1.3846   2.4449   2.4303   0.00    0.0
2023/11/29 10:34:20.000   12.640615432   77.150224311   582.3244   5  29   3.5686   3.2163   8.7515   1.3847   2.4454   2.4309   0.00    0.0
2023/11/29 10:34:21.000   12.640611487   77.150174598   582.3042   5  29   3.5685   3.2164   8.7522   1.3847   2.4460   2.4316   0.00    0.0
2023/11/29 10:34:22.000   12.640607814   77.150139373   582.5887   5  29   3.5684   3.2164   8.7529   1.3848   2.4465   2.4322   0.00    0.0
2023/11/29 10:34:23.000   12.640612016   77.150111727   580.1670   5  28   3.6115   3.2195   9.0765   1.4129   2.3769   2.1406   0.00    0.0
2023/11/29 10:34:24.000   12.640616424   77.150090553   581.0583   5  28   3.6113   3.2196   9.0773   1.4129   2.3775   2.1414   0.00    0.0
2023/11/29 10:34:25.000   12.640614387   77.150066908   579.4585   5  28   3.6111   3.2196   9.0781   1.4129   2.3781   2.1422   0.00    0.0
2023/11/29 10:34:26.000   12.640616713   77.150038727   584.6499   5  28   3.6110   3.2196   9.0789   1.4129   2.3787   2.1430   0.00    0.0
2023/11/29 10:34:27.000   12.640607518   77.150012905   581.3526   5  29   3.5677   3.2166   8.7566   1.3849   2.4492   2.4354   0.00    0.0
2023/11/29 10:34:28.000   12.640613246   77.149987244   581.7575   5  27   3.6927   3.2201   9.6031   1.3983   2.3449   2.6493   0.00    0.0
2023/11/29 10:34:29.000   12.640606025   77.149958819   581.0343   5  29   3.5674   3.2167   8.7580   1.3850   2.4502   2.4367   0.00    0.0
2023/11/29 10:34:30.000   12.640608539   77.149925596   582.6236   5  29   3.5673   3.2167   8.7587   1.3851   2.4507   2.4373   0.00    0.0
2023/11/29 10:34:31.000   12.640602995   77.149883063   581.6052   5  28   3.6619   3.2170   9.2155   1.3737   2.4289   2.8832   0.00    0.0
2023/11/29 10:34:32.000   12.640603510   77.149817720   584.3670   5  28   3.6617   3.2170   9.2163   1.3738   2.4295   2.8838   0.00    0.0
2023/11/29 10:34:33.000   12.640603351   77.149743762   582.4731   5  29   3.5669   3.2168   8.7609   1.3852   2.4523   2.4392   0.00    0.0
2023/11/29 10:34:34.000   12.640602804   77.149668243   582.5734   5  29   3.5668   3.2169   8.7616   1.3852   2.4529   2.4399   0.00    0.0
2023/11/29 10:34:35.000   12.640593480   77.149590683   582.4959   5  29   3.5666   3.2169   8.7623   1.3853   2.4534   2.4405   0.00    0.0
2023/11/29 10:34:36.000   12.640592994   77.149509251   582.6690   5  29   3.5665   3.2169   8.7631   1.3853   2.4540   2.4412   0.00    0.0
2023/11/29 10:34:37.000   12.640567892   77.149405449   591.8619   5  30   3.5447   3.1959   8.4363   1.3323   2.6261   2.6257   0.00    0.0
2023/11/29 10:34:38.000   12.640568646   77.149304742   590.2364   5  30   3.5446   3.1960   8.4369   1.3324   2.6266   2.6262   0.00    0.0
2023/11/29 10:34:39.000   12.640572200   77.149191009   592.9871   5  29   3.6462   3.1961   8.8519   1.3295   2.6224   3.0313   0.00    0.0
2023/11/29 10:34:40.000   12.640558269   77.149080301   591.9546   5  29   3.6461   3.1961   8.8527   1.3296   2.6229   3.0318   0.00    0.0
2023/11/29 10:34:41.000   12.640537142   77.148964925   592.0206   5  30   3.5442   3.1962   8.4389   1.3327   2.6281   2.6278   0.00    0.0
2023/11/29 10:34:42.000   12.640536090   77.148850831   587.4302   5  30   3.5441   3.1962   8.4396   1.3327   2.6286   2.6283   0.00    0.0
2023/11/29 10:34:43.000   12.640518041   77.148727300   592.4571   5  30   3.5440   3.1963   8.4403   1.3328   2.6290   2.6289   0.00    0.0
2023/11/29 10:34:44.000   12.640503579   77.148604270   592.4969   5  30   3.5439   3.1963   8.4409   1.3329   2.6295   2.6294   0.00    0.0
2023/11/29 10:34:45.000   12.640495738   77.148483454   585.0655   5  30   3.5438   3.1964   8.4416   1.3330   2.6300   2.6299   0.00    0.0
2023/11/29 10:34:46.000   12.640469607   77.148350144   583.2361   5  29   3.5789   3.1978   8.7006   1.3504   2.5932   2.4218   0.00    0.0
2023/11/29 10:34:47.000   12.640446826   77.148199582   593.3749   5  30   3.5436   3.1965   8.4429   1.3332   2.6310   2.6310   0.00    0.0
2023/11/29 10:34:48.000   12.640435917   77.148067312   583.2460   5  29   3.5649   3.2174   8.7718   1.3859   2.4605   2.4489   0.00    0.0
2023/11/29 10:34:49.000   12.640412166   77.147916487   580.1030   5  29   3.5648   3.2175   8.7725   1.3859   2.4611   2.4495   0.00    0.0
2023/11/29 10:34:50.000   12.640383187   77.147762399   579.1580   5  28   3.6070   3.2205   9.0981   1.4130   2.3935   2.1624   0.00    0.0
2023/11/29 10:34:51.000   12.640355323   77.147608418   579.7333   5  28   3.6068   3.2205   9.0989   1.4130   2.3942   2.1632   0.00    0.0
2023/11/29 10:34:52.000   12.640324125   77.147464743   579.4916   5  29   3.5644   3.2176   8.7747   1.3861   2.4627   2.4514   0.00    0.0
2023/11/29 10:34:53.000   12.640298021   77.147300743   576.3463   5  29   3.5643   3.2177   8.7754   1.3861   2.4633   2.4521   0.00    0.0
2023/11/29 10:34:54.000   12.640258505   77.147153723   579.9396   5  27   3.6888   3.2210   9.6272   1.3990   2.3627   2.6692   0.00    0.0
2023/11/29 10:34:55.000   12.640228237   77.147002907   581.8535   5  27   3.6315   3.3541   9.4540   1.2632   2.8527   1.8974   0.00    0.0
2023/11/29 10:34:56.000   12.640199878   77.146856098   581.8441   5  27   3.6536   3.5053   9.4150   0.9165   3.2879   1.8383   0.00    0.0
2023/11/29 10:34:57.000   12.640169184   77.146711069   578.2707   5  27   3.6883   3.2211   9.6300   1.3991   2.3647   2.6715   0.00    0.0
2023/11/29 10:34:58.000   12.640119929   77.146571896   589.1351   5  30   3.5424   3.1971   8.4503   1.3342   2.6365   2.6369   0.00    0.0
2023/11/29 10:34:59.000   12.640111863   77.146472222   582.9856   5  28   3.6585   3.2181   9.2387   1.3756   2.4456   2.9006   0.00    0.0
2023/11/29 10:35:00.000   12.640098218   77.146390208   580.0411   5  28   3.6053   3.2208   9.1061   1.4130   2.3998   2.1706   0.00    0.0
2023/11/29 10:35:01.000   12.640076786   77.146318220   584.3246   5  29   3.5632   3.2180   8.7813   1.3865   2.4677   2.4572   0.00    0.0
2023/11/29 10:35:02.000   12.640067322   77.146275862   584.0389   5  29   3.5631   3.2180   8.7820   1.3865   2.4682   2.4579   0.00    0.0
2023/11/29 10:35:03.000   12.640063012   77.146246919   582.5567   5  28   3.6048   3.2209   9.1085   1.4131   2.4016   2.1730   0.00    0.0
2023/11/29 10:35:04.000   12.640054170   77.146213267   581.9762   5  28   3.6047   3.2210   9.1093   1.4131   2.4022   2.1738   0.00    0.0
2023/11/29 10:35:05.000   12.640052282   77.146183643   579.7392   5  28   3.6045   3.2210   9.1101   1.4131   2.4028   2.1746   0.00    0.0
2023/11/29 10:35:06.000   12.640045097   77.146142421   581.7686   5  28   3.6043   3.2210   9.1109   1.4131   2.4034   2.1754   0.00    0.0
2023/11/29 10:35:07.000   12.640037214   77.146091835   581.7472   5  27   3.6764   3.3284   9.4305   1.1784   2.7960   1.7240   0.00    0.0
2023/11/29 10:35:08.000   12.640027390   77.146028619   579.7737   5  28   3.6040   3.2211   9.1125   1.4131   2.4047   2.1769   0.00    0.0
2023/11/29 10:35:09.000   12.640023102   77.145958411   581.9118   5  28   3.6038   3.2211   9.1133   1.4131   2.4053   2.1777   0.00    0.0
2023/11/29 10:35:10.000   12.640020109   77.145883690   590.9785   5  29   3.5621   3.2184   8.7878   1.3869   2.4725   2.4629   0.00    0.0
2023/11/29 10:35:11.000   12.639993520   77.145819815   580.1814   5  28   3.6035   3.2212   9.1149   1.4131   2.4065   2.1793   0.00    0.0
2023/11/29 10:35:12.000   12.639976519   77.145735248   581.1591   5  28   3.6033   3.2213   9.1157   1.4131   2.4071   2.1802   0.00    0.0
2023/11/29 10:35:13.000   12.639955887   77.145634837   581.3254   5  28   3.6183   3.3286   9.0258   1.1758   2.8038   2.1837   0.00    0.0
2023/11/29 10:35:14.000   12.639942318   77.145530308   585.0760   5  29   3.5615   3.2185   8.7907   1.3871   2.4746   2.4655   0.00    0.0
2023/11/29 10:35:15.000   12.639915975   77.145409859   582.1905   5  29   3.5614   3.2186   8.7914   1.3871   2.4752   2.4661   0.00    0.0
2023/11/29 10:35:16.000   12.639893362   77.145287941   582.8301   5  29   3.5613   3.2186   8.7922   1.3871   2.4757   2.4667   0.00    0.0
2023/11/29 10:35:17.000   12.639867114   77.145159544   582.9861   5  29   3.5611   3.2187   8.7929   1.3872   2.4763   2.4674   0.00    0.0
2023/11/29 10:35:18.000   12.639836863   77.145025140   582.6018   5  29   3.5610   3.2187   8.7936   1.3872   2.4768   2.4680   0.00    0.0
2023/11/29 10:35:19.000   12.639807389   77.144886507   584.1822   5  29   3.5609   3.2188   8.7944   1.3873   2.4774   2.4687   0.00    0.0
2023/11/29 10:35:20.000   12.639774215   77.144739206   584.2765   5  29   3.5608   3.2188   8.7951   1.3873   2.4779   2.4693   0.00    0.0
2023/11/29 10:35:21.000   12.639731370   77.144586651   581.2100   5  29   3.5606   3.2189   8.7958   1.3874   2.4785   2.4699   0.00    0.0
2023/11/29 10:35:22.000   12.639716040   77.144419300   588.7525   5  29   3.5605   3.2189   8.7965   1.3874   2.4790   2.4706   0.00    0.0
2023/11/29 10:35:23.000   12.639658672   77.144273726   581.4579   5  29   3.5604   3.2189   8.7973   1.3875   2.4796   2.4712   0.00    0.0
2023/11/29 10:35:24.000   12.639605814   77.144115375   580.9010   5  28   3.6169   3.3291   9.0328   1.1763   2.8086   2.1920   0.00    0.0
2023/11/29 10:35:25.000   12.639557183   77.143945485   580.0162   5  29   3.5601   3.2190   8.7987   1.3876   2.4807   2.4725   0.00    0.0
2023/11/29 10:35:26.000   12.639501231   77.143783101   581.5535   5  28   3.5801   3.3554   9.1061   1.2518   2.8939   2.2867   0.00    0.0
2023/11/29 10:35:27.000   12.639456543   77.143603005   585.6543   5  27   3.6722   3.3554   9.5765   1.2504   2.8922   2.7667   0.00    0.0
2023/11/29 10:35:28.000   12.639388127   77.143422885   582.0387   5  28   3.5799   3.3555   9.1076   1.2519   2.8949   2.2880   0.00    0.0
2023/11/29 10:35:29.000   12.639338560   77.143241255   583.8870   5  27   3.6495   3.5070   9.4363   0.9182   3.3013   1.8672   0.00    0.0
2023/11/29 10:35:30.000   12.639283335   77.143062328   584.6076   5  26   3.7047   3.3560  10.0295   1.2605   2.8681   2.4907   0.00    0.0
2023/11/29 10:35:31.000   12.639225648   77.142881811   583.4252   5  27   3.6718   3.3557   9.5800   1.2507   2.8945   2.7693   0.00    0.0
2023/11/29 10:35:32.000   12.639173180   77.142698378   583.1236   5  26   3.6717   3.3920   9.8021   1.2455   2.7123   2.7801   0.00    0.0
2023/11/29 10:35:33.000   12.639125206   77.142515019   583.8237   5  26   3.6716   3.3921   9.8029   1.2455   2.7130   2.7807   0.00    0.0
2023/11/29 10:35:34.000   12.639072697   77.142332548   582.8972   5  26   3.6715   3.3921   9.8038   1.2456   2.7136   2.7814   0.00    0.0
2023/11/29 10:35:35.000   12.639012808   77.142158002   582.0535   5  28   3.5790   3.3559   9.1129   1.2523   2.8986   2.2928   0.00    0.0
2023/11/29 10:35:36.000   12.638957034   77.141991689   582.4648   5  26   3.7038   3.3563  10.0354   1.2607   2.8721   2.4956   0.00    0.0
2023/11/29 10:35:37.000   12.638904996   77.141837560   583.1860   5  28   3.5787   3.3560   9.1144   1.2524   2.8997   2.2942   0.00    0.0
2023/11/29 10:35:38.000   12.638868481   77.141692530   581.8905   5  28   3.5786   3.3561   9.1152   1.2524   2.9002   2.2948   0.00    0.0
2023/11/29 10:35:39.000   12.638815326   77.141552989   582.3082   5  28   3.5785   3.3561   9.1159   1.2524   2.9007   2.2955   0.00    0.0
2023/11/29 10:35:40.000   12.638767803   77.141413208   581.8160   5  30   3.3847   3.3422   8.4091   1.2043   3.0334   1.9000   0.00    0.0
2023/11/29 10:35:41.000   12.638738694   77.141277713   585.4330   5  30   3.3846   3.3422   8.4097   1.2044   3.0339   1.9007   0.00    0.0
2023/11/29 10:35:42.000   12.638689127   77.141140534   581.6885   5  30   3.3845   3.3423   8.4104   1.2045   3.0344   1.9014   0.00    0.0
2023/11/29 10:35:43.000   12.638637734   77.140997706   581.8496   5  29   3.4523   3.3424   8.7404   1.2107   3.0434   2.2886   0.00    0.0
2023/11/29 10:35:44.000   12.638600034   77.140848964   582.9964   5  30   3.3843   3.3424   8.4117   1.2047   3.0354   1.9028   0.00    0.0
2023/11/29 10:35:45.000   12.638559020   77.140697294   583.7936   5  29   3.4522   3.3426   8.7418   1.2109   3.0444   2.2899   0.00    0.0
2023/11/29 10:35:46.000   12.638508743   77.140553258   583.6294   5  29   3.4521   3.3426   8.7426   1.2111   3.0449   2.2905   0.00    0.0
2023/11/29 10:35:47.000   12.638460148   77.140399695   582.0381   5  31   3.3654   3.2815   8.0313   1.2951   2.7616   2.1253   0.00    0.0
2023/11/29 10:35:48.000   12.638407501   77.140249409   579.2374   5  31   3.3653   3.2815   8.0319   1.2952   2.7620   2.1259   0.00    0.0
2023/11/29 10:35:49.000   12.638384186   77.140086612   582.1031   5  31   3.3652   3.2816   8.0325   1.2953   2.7625   2.1265   0.00    0.0
2023/11/29 10:35:50.000   12.638335456   77.139927806   582.3296   5  31   3.3651   3.2816   8.0332   1.2954   2.7629   2.1270   0.00    0.0
2023/11/29 10:35:51.000   12.638299458   77.139768846   583.3296   5  30   3.4366   3.2817   8.3444   1.2932   2.7600   2.4701   0.00    0.0
2023/11/29 10:35:52.000   12.638261022   77.139611508   583.7547   5  31   3.3649   3.2817   8.0344   1.2956   2.7638   2.1282   0.00    0.0
2023/11/29 10:35:53.000   12.638235023   77.139449821   585.4743   5  31   3.3648   3.2818   8.0350   1.2957   2.7643   2.1288   0.00    0.0
2023/11/29 10:35:54.000   12.638221550   77.139286368   586.3827   5  31   3.3647   3.2818   8.0357   1.2958   2.7647   2.1294   0.00    0.0
2023/11/29 10:35:55.000   12.638199043   77.139117179   587.3214   5  31   3.3646   3.2818   8.0363   1.2959   2.7652   2.1300   0.00    0.0
2023/11/29 10:35:56.000   12.638182871   77.138948776   586.6346   5  30   3.5451   3.2825   8.3374   1.2686   2.7403   2.6490   0.00    0.0
2023/11/29 10:35:57.000   12.638172694   77.138776750   587.3616   5  30   3.5450   3.2825   8.3381   1.2687   2.7408   2.6495   0.00    0.0
2023/11/29 10:35:58.000   12.638159689   77.138607604   586.1831   5  30   3.5449   3.2826   8.3387   1.2688   2.7412   2.6500   0.00    0.0
2023/11/29 10:35:59.000   12.638145604   77.138432928   586.1115   5  30   3.5448   3.2826   8.3394   1.2689   2.7416   2.6505   0.00    0.0
2023/11/29 10:36:00.000   12.638171432   77.138259510   592.5195   5  31   3.3641   3.2821   8.0395   1.2963   2.7674   2.1329   0.00    0.0
2023/11/29 10:36:01.000   12.638134239   77.138083082   586.1366   5  30   3.5446   3.2827   8.3407   1.2690   2.7425   2.6515   0.00    0.0
2023/11/29 10:36:02.000   12.638124208   77.137908582   584.3904   5  30   3.5445   3.2828   8.3413   1.2691   2.7429   2.6520   0.00    0.0
2023/11/29 10:36:03.000   12.638123718   77.137732305   586.1843   5  29   3.6478   3.2828   8.7358   1.2636   2.7356   3.0449   0.00    0.0
2023/11/29 10:36:04.000   12.638160575   77.137550051   592.5328   5  31   3.3637   3.2822   8.0420   1.2967   2.7692   2.1352   0.00    0.0
2023/11/29 10:36:05.000   12.638159492   77.137373120   594.4981   5  30   3.4354   3.2823   8.3542   1.2948   2.7666   2.4779   0.00    0.0
2023/11/29 10:36:06.000   12.638123528   77.137192850   587.6363   5  30   3.5441   3.2829   8.3439   1.2694   2.7447   2.6539   0.00    0.0
2023/11/29 10:36:07.000   12.638120290   77.137023077   590.2983   5  30   3.5440   3.2830   8.3446   1.2695   2.7451   2.6544   0.00    0.0
2023/11/29 10:36:08.000   12.638121711   77.136837033   590.3214   5  30   3.5439   3.2830   8.3452   1.2696   2.7456   2.6549   0.00    0.0
2023/11/29 10:36:09.000   12.638093606   77.136653284   586.7897   5  29   3.6472   3.2831   8.7401   1.2642   2.7384   3.0478   0.00    0.0
2023/11/29 10:36:10.000   12.638082319   77.136476311   586.2860   5  29   3.6471   3.2832   8.7409   1.2643   2.7389   3.0483   0.00    0.0
2023/11/29 10:36:11.000   12.638103485   77.136298004   597.2474   5  30   3.5436   3.2832   8.3472   1.2698   2.7469   2.6564   0.00    0.0
2023/11/29 10:36:12.000   12.638072539   77.136134936   592.7258   5  30   3.5435   3.2832   8.3478   1.2699   2.7473   2.6568   0.00    0.0
2023/11/29 10:36:13.000   12.638049890   77.135977092   594.9349   5  30   3.5434   3.2832   8.3485   1.2700   2.7478   2.6573   0.00    0.0
2023/11/29 10:36:14.000   12.638037749   77.135796010   595.8623   5  30   3.5433   3.2833   8.3491   1.2701   2.7482   2.6578   0.00    0.0
2023/11/29 10:36:15.000   12.637992631   77.135637244   592.5126   5  30   3.5432   3.2833   8.3498   1.2702   2.7487   2.6583   0.00    0.0
2023/11/29 10:36:16.000   12.637968985   77.135442304   587.8873   5  29   3.6466   3.2834   8.7452   1.2650   2.7418   3.0512   0.00    0.0
2023/11/29 10:36:17.000   12.637938635   77.135254241   586.5629   5  29   3.6465   3.2835   8.7459   1.2651   2.7422   3.0517   0.00    0.0
2023/11/29 10:36:18.000   12.637912377   77.135059792   592.6474   5  30   3.5429   3.2835   8.3517   1.2704   2.7500   2.6598   0.00    0.0
2023/11/29 10:36:19.000   12.637871303   77.134854032   590.6400   5  29   3.6463   3.2836   8.7474   1.2653   2.7432   3.0526   0.00    0.0
2023/11/29 10:36:20.000   12.637832596   77.134654114   592.9533   5  30   3.5428   3.2836   8.3530   1.2706   2.7509   2.6608   0.00    0.0
2023/11/29 10:36:21.000   12.637789687   77.134448108   592.1727   5  30   3.5427   3.2836   8.3537   1.2707   2.7513   2.6613   0.00    0.0
2023/11/29 10:36:22.000   12.637738560   77.134249747   591.9813   5  30   3.5426   3.2837   8.3543   1.2708   2.7518   2.6618   0.00    0.0
2023/11/29 10:36:23.000   12.637696458   77.134054134   591.4753   5  30   3.5425   3.2837   8.3550   1.2709   2.7522   2.6623   0.00    0.0
2023/11/29 10:36:24.000   12.637656278   77.133870795   594.1063   5  30   3.5424   3.2838   8.3556   1.2710   2.7526   2.6628   0.00    0.0
2023/11/29 10:36:25.000   12.637649886   77.133699623   599.7246   5  31   3.3617   3.2832   8.0553   1.2987   2.7786   2.1475   0.00    0.0
2023/11/29 10:36:26.000   12.637580776   77.133555854   591.4495   5  30   3.5422   3.2838   8.3569   1.2711   2.7535   2.6637   0.00    0.0
2023/11/29 10:36:27.000   12.637561142   77.133422978   593.7866   5  31   3.3615   3.2833   8.0566   1.2989   2.7795   2.1486   0.00    0.0
2023/11/29 10:36:28.000   12.637535770   77.133314595   593.7351   5  31   3.3615   3.2833   8.0572   1.2990   2.7800   2.1492   0.00    0.0
2023/11/29 10:36:29.000   12.637523237   77.133234146   592.5996   5  31   3.3614   3.2834   8.0578   1.2990   2.7804   2.1498   0.00    0.0
2023/11/29 10:36:30.000   12.637498648   77.133182788   590.1764   5  31   3.3613   3.2834   8.0585   1.2991   2.7808   2.1504   0.00    0.0
2023/11/29 10:36:31.000   12.637498898   77.133128645   593.4697   5  30   3.4331   3.2834   8.3723   1.2977   2.7790   2.4924   0.00    0.0
2023/11/29 10:36:32.000   12.637486268   77.133071982   592.6981   5  31   3.3611   3.2835   8.0597   1.2993   2.7817   2.1515   0.00    0.0
2023/11/29 10:36:33.000   12.637477422   77.133014349   597.2185   5  31   3.3610   3.2835   8.0604   1.2994   2.7821   2.1521   0.00    0.0
2023/11/29 10:36:34.000   12.637472445   77.132937954   597.2122   5  31   3.3609   3.2836   8.0610   1.2995   2.7826   2.1527   0.00    0.0
2023/11/29 10:36:35.000   12.637460277   77.132855383   598.2456   5  30   3.4327   3.2836   8.3751   1.2982   2.7809   2.4946   0.00    0.0
2023/11/29 10:36:36.000   12.637434563   77.132791503   594.7019   5  29   3.5287   3.3245   8.6018   1.1227   2.5919   2.7979   0.00    0.0
2023/11/29 10:36:37.000   12.637415495   77.132704390   595.4359   5  29   3.6864   3.3294   8.6679   1.0286   2.5229   3.0750   0.00    0.0
2023/11/29 10:36:38.000   12.637442110   77.132607297   605.7214   5  29   3.4724   3.3250   8.4884   1.1625   2.5917   2.2124   0.00    0.0
2023/11/29 10:36:39.000   12.637374699   77.132514451   596.2891   5  29   3.5732   3.2850   8.6103   1.2844   2.7348   2.4802   0.00    0.0
2023/11/29 10:36:40.000   12.637382646   77.132414263   603.0633   5  30   3.3978   3.2844   8.3068   1.3123   2.7623   1.9097   0.00    0.0
2023/11/29 10:36:41.000   12.637340575   77.132313494   594.7664   5  29   3.5729   3.2851   8.6117   1.2845   2.7358   2.4814   0.00    0.0
2023/11/29 10:36:42.000   12.637325934   77.132203627   594.4698   5  29   3.5728   3.2852   8.6125   1.2845   2.7363   2.4819   0.00    0.0
2023/11/29 10:36:43.000   12.637261031   77.132093394   584.1180   5  30   3.3974   3.2845   8.3088   1.3125   2.7638   1.9118   0.00    0.0
2023/11/29 10:36:44.000   12.637295327   77.131970669   596.1564   5  30   3.3973   3.2846   8.3095   1.3125   2.7643   1.9125   0.00    0.0
2023/11/29 10:36:45.000   12.637282056   77.131840782   597.9643   5  30   3.3972   3.2846   8.3102   1.3126   2.7648   1.9132   0.00    0.0
2023/11/29 10:36:46.000   12.637225541   77.131716781   588.7977   5  29   3.4603   3.2847   8.6654   1.3102   2.7609   2.2976   0.00    0.0
2023/11/29 10:36:47.000   12.637205471   77.131564189   594.0358   5  28   3.6658   3.2854   9.0606   1.2786   2.7288   2.9125   0.00    0.0
2023/11/29 10:36:48.000   12.637154550   77.131428575   592.9734   5  28   3.5509   3.3262   8.9081   1.1399   2.5594   2.6320   0.00    0.0
2023/11/29 10:36:49.000   12.637119199   77.131289873   589.3088   5  30   3.3967   3.2848   8.3130   1.3129   2.7667   1.9160   0.00    0.0
2023/11/29 10:36:50.000   12.637058790   77.131162813   587.8851   5  30   3.3966   3.2848   8.3137   1.3129   2.7672   1.9167   0.00    0.0
2023/11/29 10:36:51.000   12.637056473   77.131053734   604.3901   5  29   3.4598   3.2849   8.6693   1.3106   2.7635   2.3009   0.00    0.0
2023/11/29 10:36:52.000   12.637024796   77.130941656   591.6875   5  27   3.5218   3.4004   9.4139   1.1519   2.7251   1.5934   0.00    0.0
2023/11/29 10:36:53.000   12.636997923   77.130843464   589.8080   5  28   3.4696   3.3604   9.1094   1.2810   2.9440   1.0524   0.00    0.0
2023/11/29 10:36:54.000   12.636976903   77.130754236   590.2519   5  28   3.4695   3.3605   9.1102   1.2810   2.9446   1.0539   0.00    0.0
2023/11/29 10:36:55.000   12.636939359   77.130682140   588.0586   5  26   3.6924   3.3608  10.1131   1.2637   2.9235   2.5585   0.00    0.0
2023/11/29 10:36:56.000   12.636974662   77.130616647   604.2277   5  28   3.4691   3.3606   9.1118   1.2810   2.9457   1.0568   0.00    0.0
2023/11/29 10:36:57.000   12.636944309   77.130594539   594.8053   5  28   3.4690   3.3606   9.1126   1.2810   2.9463   1.0583   0.00    0.0
2023/11/29 10:36:58.000   12.636941305   77.130572804   594.5393   5  27   3.6118   3.3610   9.5582   1.2640   2.9257   2.0056   0.00    0.0
2023/11/29 10:36:59.000   12.636922628   77.130548900   589.2492   5  28   3.4686   3.3607   9.1142   1.2810   2.9474   1.0612   0.00    0.0
2023/11/29 10:37:00.000   12.636926245   77.130506099   595.5948   5  28   3.4685   3.3608   9.1149   1.2810   2.9480   1.0627   0.00    0.0
2023/11/29 10:37:01.000   12.636904988   77.130466016   590.3601   5  28   3.4683   3.3609   9.1157   1.2810   2.9486   1.0641   0.00    0.0
2023/11/29 10:37:02.000   12.636890036   77.130406249   588.4909   5  28   3.4682   3.3609   9.1165   1.2810   2.9492   1.0656   0.00    0.0
2023/11/29 10:37:03.000   12.636892650   77.130319951   593.7900   5  28   3.4680   3.3610   9.1173   1.2811   2.9497   1.0670   0.00    0.0
2023/11/29 10:37:04.000   12.636881050   77.130256975   592.9133   5  27   3.5187   3.3610   9.5429   1.2826   2.9536   1.6792   0.00    0.0
2023/11/29 10:37:05.000   12.636858878   77.130179338   591.3543   5  28   3.4677   3.3611   9.1189   1.2811   2.9509   1.0700   0.00    0.0
2023/11/29 10:37:06.000   12.636826072   77.130106332   585.0747   5  28   3.4675   3.3611   9.1197   1.2811   2.9515   1.0714   0.00    0.0
2023/11/29 10:37:07.000   12.636820397   77.130007047   588.1033   5  28   3.4673   3.3612   9.1205   1.2811   2.9521   1.0729   0.00    0.0
2023/11/29 10:37:08.000   12.636805485   77.129900903   589.6243   5  28   3.4672   3.3613   9.1213   1.2811   2.9526   1.0743   0.00    0.0
2023/11/29 10:37:09.000   12.636782367   77.129782820   588.4009   5  28   3.4670   3.3613   9.1221   1.2811   2.9532   1.0758   0.00    0.0
2023/11/29 10:37:10.000   12.636766474   77.129645577   588.8638   5  27   3.5178   3.3614   9.5483   1.2828   2.9573   1.6854   0.00    0.0
2023/11/29 10:37:11.000   12.636739642   77.129507021   587.1644   5  28   3.4667   3.3614   9.1237   1.2811   2.9544   1.0787   0.00    0.0
2023/11/29 10:37:12.000   12.636719461   77.129368470   588.0787   5  28   3.4665   3.3615   9.1245   1.2811   2.9550   1.0801   0.00    0.0
2023/11/29 10:37:13.000   12.636692192   77.129222504   589.6529   5  28   3.4664   3.3616   9.1253   1.2812   2.9556   1.0816   0.00    0.0
2023/11/29 10:37:14.000   12.636661901   77.129066651   589.1600   5  28   3.4662   3.3616   9.1261   1.2812   2.9562   1.0830   0.00    0.0
2023/11/29 10:37:15.000   12.636629039   77.128910981   588.5734   5  28   3.4661   3.3617   9.1269   1.2812   2.9568   1.0845   0.00    0.0
2023/11/29 10:37:16.000   12.636592491   77.128750265   586.6931   5  28   3.4659   3.3617   9.1277   1.2812   2.9574   1.0859   0.00    0.0
2023/11/29 10:37:17.000   12.636555273   77.128586033   586.9873   5  28   3.4658   3.3618   9.1285   1.2812   2.9580   1.0874   0.00    0.0
2023/11/29 10:37:18.000   12.636523033   77.128417481   587.3340   5  28   3.4656   3.3619   9.1293   1.2812   2.9586   1.0888   0.00    0.0
2023/11/29 10:37:19.000   12.636491528   77.128245161   587.6408   5  28   3.4654   3.3619   9.1300   1.2812   2.9592   1.0903   0.00    0.0
2023/11/29 10:37:20.000   12.636453737   77.128075041   586.4652   5  28   3.4653   3.3620   9.1308   1.2813   2.9598   1.0917   0.00    0.0
2023/11/29 10:37:21.000   12.636418613   77.127908118   586.9164   5  29   3.4316   3.3088   8.5961   1.3885   2.6320   1.6357   0.00    0.0
2023/11/29 10:37:22.000   12.636382517   77.127745986   586.9706   5  29   3.4315   3.3088   8.5968   1.3885   2.6326   1.6366   0.00    0.0
2023/11/29 10:37:23.000   12.636340501   77.127585789   584.3558   5  29   3.4314   3.3089   8.5976   1.3886   2.6331   1.6375   0.00    0.0
2023/11/29 10:37:24.000   12.636318483   77.127423823   585.2769   5  28   3.4882   3.3091   8.9854   1.3814   2.6178   2.0792   0.00    0.0
2023/11/29 10:37:25.000   12.636276264   77.127261499   586.2224   5  29   3.4311   3.3089   8.5990   1.3886   2.6342   1.6393   0.00    0.0
2023/11/29 10:37:26.000   12.636245738   77.127101711   587.3059   5  29   3.4309   3.3090   8.5998   1.3886   2.6347   1.6402   0.00    0.0
2023/11/29 10:37:27.000   12.636278905   77.126923066   600.3294   5  29   3.4308   3.3090   8.6005   1.3886   2.6353   1.6411   0.00    0.0
2023/11/29 10:37:28.000   12.636184324   77.126764055   587.3949   5  28   3.5888   3.3109   8.9642   1.3462   2.5825   2.3144   0.00    0.0
2023/11/29 10:37:29.000   12.636174512   77.126600987   592.2455   5  30   3.3919   3.2865   8.3407   1.3154   2.7862   1.9441   0.00    0.0
2023/11/29 10:37:30.000   12.636137407   77.126429876   591.3957   5  30   3.3917   3.2865   8.3414   1.3154   2.7867   1.9448   0.00    0.0
2023/11/29 10:37:31.000   12.636106724   77.126270696   592.6159   5  29   3.4553   3.2866   8.7002   1.3140   2.7844   2.3272   0.00    0.0
2023/11/29 10:37:32.000   12.636045928   77.126125210   586.4291   5  29   3.5666   3.2873   8.6481   1.2872   2.7601   2.5103   0.00    0.0
2023/11/29 10:37:33.000   12.636005073   77.125996228   584.4902   5  28   3.6606   3.2874   9.0977   1.2822   2.7526   2.9382   0.00    0.0
2023/11/29 10:37:34.000   12.635968845   77.125862948   586.7099   5  29   3.5663   3.2874   8.6496   1.2873   2.7611   2.5115   0.00    0.0
2023/11/29 10:37:35.000   12.636002787   77.125726033   599.4547   5  30   3.3911   3.2867   8.3448   1.3158   2.7891   1.9483   0.00    0.0
2023/11/29 10:37:36.000   12.635933940   77.125600655   588.4435   5  29   3.4645   3.3279   8.5271   1.1668   2.6209   2.2450   0.00    0.0
2023/11/29 10:37:37.000   12.635892907   77.125455368   587.7112   5  29   3.4643   3.3279   8.5278   1.1669   2.6214   2.2456   0.00    0.0
2023/11/29 10:37:38.000   12.635830765   77.125303175   583.9260   5  30   3.3908   3.2869   8.3469   1.3160   2.7906   1.9504   0.00    0.0
2023/11/29 10:37:39.000   12.635775581   77.125142913   586.3752   5  30   3.3907   3.2869   8.3476   1.3160   2.7911   1.9511   0.00    0.0
2023/11/29 10:37:40.000   12.635719965   77.124981113   583.1092   5  30   3.3906   3.2870   8.3483   1.3161   2.7915   1.9518   0.00    0.0
2023/11/29 10:37:41.000   12.635668644   77.124818116   582.5440   5  30   3.3904   3.2870   8.3490   1.3162   2.7920   1.9525   0.00    0.0
2023/11/29 10:37:42.000   12.635616452   77.124663058   582.3518   5  30   3.3903   3.2870   8.3497   1.3162   2.7925   1.9532   0.00    0.0
2023/11/29 10:37:43.000   12.635570004   77.124517177   581.6662   5  30   3.3902   3.2871   8.3504   1.3163   2.7930   1.9539   0.00    0.0
2023/11/29 10:37:44.000   12.635528433   77.124362001   582.9468   5  30   3.3901   3.2871   8.3511   1.3164   2.7935   1.9546   0.00    0.0
2023/11/29 10:37:45.000   12.635468768   77.124213441   581.9193   5  30   3.3900   3.2872   8.3518   1.3164   2.7940   1.9553   0.00    0.0
2023/11/29 10:37:46.000   12.635412230   77.124054014   581.0059   5  30   3.3899   3.2872   8.3525   1.3165   2.7945   1.9560   0.00    0.0
2023/11/29 10:37:47.000   12.635356107   77.123894478   580.2105   5  30   3.3897   3.2873   8.3532   1.3166   2.7950   1.9567   0.00    0.0
2023/11/29 10:37:48.000   12.635317455   77.123730003   583.9407   5  30   3.3896   3.2873   8.3539   1.3167   2.7955   1.9574   0.00    0.0
2023/11/29 10:37:49.000   12.635232766   77.123575099   580.3481   5  30   3.3895   3.2874   8.3546   1.3167   2.7960   1.9581   0.00    0.0
2023/11/29 10:37:50.000   12.635186165   77.123415994   579.5772   5  29   3.4532   3.2874   8.7149   1.3156   2.7944   2.3397   0.00    0.0
2023/11/29 10:37:51.000   12.635125266   77.123259990   580.4758   5  30   3.3893   3.2874   8.3560   1.3169   2.7969   1.9595   0.00    0.0
2023/11/29 10:37:52.000   12.635058810   77.123101038   579.5776   5  30   3.3892   3.2875   8.3567   1.3169   2.7974   1.9602   0.00    0.0
2023/11/29 10:37:53.000   12.634993999   77.122935719   580.2392   5  30   3.3890   3.2875   8.3574   1.3170   2.7979   1.9609   0.00    0.0
2023/11/29 10:37:54.000   12.634913960   77.122777033   579.5537   5  30   3.3889   3.2876   8.3581   1.3171   2.7984   1.9616   0.00    0.0
2023/11/29 10:37:55.000   12.634837690   77.122622897   581.6796   5  30   3.3888   3.2876   8.3588   1.3171   2.7989   1.9623   0.00    0.0
2023/11/29 10:37:56.000   12.634725454   77.122476604   574.0847   5  30   3.3887   3.2877   8.3595   1.3172   2.7994   1.9630   0.00    0.0
2023/11/29 10:37:57.000   12.634651714   77.122330015   575.9213   5  30   3.3886   3.2877   8.3602   1.3173   2.7999   1.9637   0.00    0.0
2023/11/29 10:37:58.000   12.634596999   77.122195457   580.7677   5  30   3.3885   3.2878   8.3609   1.3173   2.8004   1.9644   0.00    0.0
2023/11/29 10:37:59.000   12.634501231   77.122066630   578.1669   5  29   3.4523   3.2878   8.7219   1.3165   2.7992   2.3457   0.00    0.0
2023/11/29 10:38:00.000   12.634431569   77.121927655   579.6714   5  30   3.3882   3.2879   8.3623   1.3175   2.8014   1.9658   0.00    0.0
2023/11/29 10:38:01.000   12.634356225   77.121799201   578.9064   5  30   3.3881   3.2879   8.3630   1.3176   2.8018   1.9665   0.00    0.0
2023/11/29 10:38:02.000   12.634285412   77.121675588   581.3488   5  30   3.3880   3.2879   8.3637   1.3176   2.8023   1.9672   0.00    0.0
2023/11/29 10:38:03.000   12.634197402   77.121551558   579.7140   5  30   3.3879   3.2880   8.3644   1.3177   2.8028   1.9679   0.00    0.0
2023/11/29 10:38:04.000   12.634110379   77.121426170   579.0954   5  31   3.2993   3.2874   8.0817   1.3359   2.8273   1.4884   0.00    0.0
2023/11/29 10:38:05.000   12.634022464   77.121292462   576.7545   5  31   3.2992   3.2875   8.0822   1.3359   2.8277   1.4892   0.00    0.0
2023/11/29 10:38:06.000   12.633927482   77.121155124   575.1811   5  31   3.2991   3.2875   8.0828   1.3360   2.8282   1.4900   0.00    0.0
2023/11/29 10:38:07.000   12.633834967   77.121024642   576.9450   5  31   3.2990   3.2876   8.0833   1.3360   2.8286   1.4908   0.00    0.0
2023/11/29 10:38:08.000   12.633759084   77.120903377   574.9878   5  31   3.2989   3.2876   8.0839   1.3360   2.8290   1.4916   0.00    0.0
2023/11/29 10:38:09.000   12.633711034   77.120809606   579.3350   5  30   3.3468   3.2877   8.3808   1.3370   2.8312   1.8643   0.00    0.0
2023/11/29 10:38:10.000   12.633656814   77.120737970   577.1955   5  31   3.2986   3.2877   8.0850   1.3361   2.8299   1.4931   0.00    0.0
2023/11/29 10:38:11.000   12.633625909   77.120683804   577.0740   5  31   3.2985   3.2878   8.0856   1.3361   2.8303   1.4939   0.00    0.0
2023/11/29 10:38:12.000   12.633596443   77.120647911   576.1525   5  31   3.2984   3.2878   8.0861   1.3361   2.8307   1.4946   0.00    0.0
2023/11/29 10:38:13.000   12.633571883   77.120605148   576.3752   5  31   3.2983   3.2878   8.0867   1.3361   2.8311   1.4954   0.00    0.0
2023/11/29 10:38:14.000   12.633543493   77.120567540   573.7763   5  31   3.2982   3.2879   8.0872   1.3361   2.8316   1.4962   0.00    0.0
2023/11/29 10:38:15.000   12.633514129   77.120517409   574.4314   5  31   3.2980   3.2879   8.0878   1.3361   2.8320   1.4969   0.00    0.0
2023/11/29 10:38:16.000   12.633479358   77.120459008   575.9878   5  31   3.2979   3.2880   8.0884   1.3362   2.8324   1.4977   0.00    0.0
2023/11/29 10:38:17.000   12.633438151   77.120394817   575.4450   5  31   3.2978   3.2880   8.0889   1.3362   2.8328   1.4984   0.00    0.0
2023/11/29 10:38:18.000   12.633399404   77.120325586   575.7194   5  31   3.2977   3.2881   8.0895   1.3362   2.8332   1.4992   0.00    0.0
2023/11/29 10:38:19.000   12.633367683   77.120246983   578.2746   5  31   3.2976   3.2881   8.0900   1.3362   2.8337   1.5000   0.00    0.0
2023/11/29 10:38:20.000   12.633301706   77.120160897   573.5911   5  31   3.2975   3.2882   8.0906   1.3362   2.8341   1.5007   0.00    0.0
