% program   : RTKPOST ver.2.4.3 b34
% inp file  : C:\CORS\logs\DGNSS\20231109_skytraq_sghighway\Binary2023-11-09_150831_SG_Highway.obs
% inp file  : C:\CORS\logs\DGNSS\20231109_skytraq_sghighway\Binary2023-11-09_150831_SG_Highway.nav
% inp file  : C:\CORS\logs\DGNSS\20231109_SOI_log\gaar313f30.rnx\gaar313f30.23g
% inp file  : C:\CORS\logs\DGNSS\20231109_SOI_log\gaar313f30.rnx\gaar313f30.23l
% inp file  : C:\CORS\logs\DGNSS\20231109_SOI_log\gaar313f30.rnx\gaar313f30.23q
% obs start : 2023/11/09 05:59:14.0 GPST (week2287 367154.0s)
% obs end   : 2023/11/09 07:25:32.0 GPST (week2287 372332.0s)
% pos mode  : Single
% elev mask : 10.0 deg
% ionos opt : Broadcast
% tropo opt : Saastamoinen
% ephemeris : Broadcast
% navi sys  : GPS GLONASS Galileo QZSS BDS NavIC
%
% (lat/lon/height=WGS84/ellipsoidal,Q=1:fix,2:float,3:sbas,4:dgps,5:single,6:ppp,ns=# of satellites)
%  GPST                  latitude(deg) longitude(deg)  height(m)   Q  ns   sdn(m)   sde(m)   sdu(m)  sdne(m)  sdeu(m)  sdun(m) age(s)  ratio
2023/11/09 05:59:14.001   23.092575188   72.529626257     2.6718   5  16   3.7086   3.4308   7.9421  -1.2717   2.6451  -2.5436   0.00    0.0
2023/11/09 05:59:15.000   23.092585825   72.529625579     2.1032   5  16   3.7084   3.4309   7.9429  -1.2720   2.6454  -2.5440   0.00    0.0
2023/11/09 05:59:16.000   23.092587710   72.529624095     1.6525   5  16   3.7083   3.4310   7.9438  -1.2722   2.6456  -2.5443   0.00    0.0
2023/11/09 05:59:17.000   23.092591888   72.529624259     1.0977   5  16   3.7082   3.4312   7.9446  -1.2725   2.6459  -2.5446   0.00    0.0
2023/11/09 05:59:18.000   23.092581596   72.529627495     2.8133   5  16   3.7081   3.4313   7.9454  -1.2727   2.6462  -2.5450   0.00    0.0
2023/11/09 05:59:19.000   23.092570044   72.529619408     3.6783   5  15   3.8448   3.6305   8.3419  -0.6440   1.9982  -3.0099   0.00    0.0
2023/11/09 05:59:20.000   23.092579476   72.529632778     2.4134   5  16   3.7078   3.4315   7.9471  -1.2732   2.6467  -2.5457   0.00    0.0
2023/11/09 05:59:21.000   23.092585386   72.529628448     3.0317   5  16   3.7077   3.4316   7.9479  -1.2734   2.6469  -2.5460   0.00    0.0
2023/11/09 05:59:22.000   23.092579639   72.529628235     2.3589   5  16   3.7076   3.4317   7.9487  -1.2736   2.6472  -2.5463   0.00    0.0
2023/11/09 05:59:23.000   23.092581644   72.529629665     3.2031   5  16   3.7074   3.4318   7.9496  -1.2739   2.6474  -2.5467   0.00    0.0
2023/11/09 05:59:24.000   23.092586118   72.529622429     4.2410   5  15   3.8442   3.6308   8.3467  -0.6468   1.9997  -3.0118   0.00    0.0
2023/11/09 05:59:25.000   23.092587348   72.529629669     3.1136   5  16   3.7072   3.4320   7.9512  -1.2744   2.6480  -2.5473   0.00    0.0
2023/11/09 05:59:26.000   23.092581771   72.529635165     3.7995   5  16   3.7071   3.4322   7.9521  -1.2746   2.6482  -2.5477   0.00    0.0
2023/11/09 05:59:27.000   23.092581709   72.529626393     3.0394   5  16   3.7070   3.4323   7.9529  -1.2748   2.6485  -2.5480   0.00    0.0
2023/11/09 05:59:28.000   23.092584356   72.529629819     4.0659   5  16   3.7068   3.4324   7.9537  -1.2751   2.6487  -2.5483   0.00    0.0
2023/11/09 05:59:29.000   23.092587049   72.529627604     3.4315   5  16   3.7067   3.4325   7.9546  -1.2753   2.6490  -2.5487   0.00    0.0
2023/11/09 05:59:30.000   23.092585402   72.529631965     4.6955   5  16   3.7066   3.4326   7.9554  -1.2755   2.6492  -2.5490   0.00    0.0
2023/11/09 05:59:31.000   23.092586264   72.529629686     2.5769   5  16   3.7065   3.4327   7.9562  -1.2758   2.6495  -2.5493   0.00    0.0
2023/11/09 05:59:32.000   23.092583832   72.529633676     3.5924   5  16   3.7063   3.4328   7.9571  -1.2760   2.6497  -2.5497   0.00    0.0
2023/11/09 05:59:33.000   23.092583324   72.529617567     4.4148   5  15   3.8433   3.6313   8.3552  -0.6518   2.0022  -3.0153   0.00    0.0
2023/11/09 05:59:34.000   23.092581804   72.529627411     3.1724   5  16   3.7061   3.4330   7.9587  -1.2765   2.6503  -2.5503   0.00    0.0
2023/11/09 05:59:35.000   23.092590566   72.529631543     4.4176   5  16   3.7060   3.4332   7.9596  -1.2767   2.6505  -2.5507   0.00    0.0
2023/11/09 05:59:36.000   23.092584427   72.529630626     4.2991   5  16   3.7058   3.4333   7.9604  -1.2770   2.6508  -2.5510   0.00    0.0
2023/11/09 05:59:37.000   23.092583071   72.529633086     4.4762   5  16   3.7057   3.4334   7.9612  -1.2772   2.6510  -2.5513   0.00    0.0
2023/11/09 05:59:38.000   23.092593031   72.529629185     4.6627   5  16   3.7056   3.4335   7.9621  -1.2774   2.6513  -2.5517   0.00    0.0
2023/11/09 05:59:39.000   23.092581295   72.529628554     5.2666   5  16   3.7055   3.4336   7.9629  -1.2777   2.6515  -2.5520   0.00    0.0
2023/11/09 05:59:40.000   23.092582954   72.529628312     3.9698   5  16   3.7053   3.4337   7.9637  -1.2779   2.6518  -2.5523   0.00    0.0
2023/11/09 05:59:41.000   23.092584197   72.529623772     3.4487   5  16   3.7052   3.4338   7.9646  -1.2781   2.6520  -2.5527   0.00    0.0
2023/11/09 05:59:42.000   23.092582690   72.529629132     4.3960   5  16   3.7051   3.4339   7.9654  -1.2784   2.6523  -2.5530   0.00    0.0
2023/11/09 05:59:43.000   23.092586902   72.529630204     3.9156   5  16   3.7050   3.4340   7.9662  -1.2786   2.6525  -2.5533   0.00    0.0
2023/11/09 05:59:44.000   23.092580069   72.529630662     5.6893   5  16   3.7049   3.4342   7.9671  -1.2788   2.6528  -2.5537   0.00    0.0
2023/11/09 05:59:45.000   23.092581717   72.529629737     4.8453   5  16   3.7047   3.4343   7.9679  -1.2791   2.6530  -2.5540   0.00    0.0
2023/11/09 05:59:46.000   23.092582628   72.529629958     4.7475   5  16   3.7046   3.4344   7.9687  -1.2793   2.6533  -2.5543   0.00    0.0
2023/11/09 05:59:47.000   23.092575217   72.529629117     5.9782   5  16   3.7045   3.4345   7.9696  -1.2795   2.6535  -2.5547   0.00    0.0
2023/11/09 05:59:48.000   23.092576026   72.529635539     5.7738   5  16   3.7044   3.4346   7.9704  -1.2798   2.6538  -2.5550   0.00    0.0
2023/11/09 05:59:49.000   23.092582236   72.529634880     5.5075   5  16   3.7042   3.4347   7.9712  -1.2800   2.6541  -2.5553   0.00    0.0
2023/11/09 05:59:50.000   23.092583892   72.529628899     3.7768   5  16   3.7041   3.4348   7.9721  -1.2802   2.6543  -2.5557   0.00    0.0
2023/11/09 05:59:51.000   23.092582387   72.529626912     4.7215   5  16   3.7040   3.4349   7.9729  -1.2805   2.6546  -2.5560   0.00    0.0
2023/11/09 05:59:52.000   23.092575011   72.529625740     5.3813   5  16   3.7039   3.4350   7.9737  -1.2807   2.6548  -2.5563   0.00    0.0
2023/11/09 05:59:53.000   23.092575207   72.529621229     4.8292   5  16   3.7037   3.4352   7.9746  -1.2809   2.6551  -2.5567   0.00    0.0
2023/11/09 05:59:54.000   23.092576245   72.529628025     5.7524   5  16   3.7036   3.4353   7.9754  -1.2812   2.6553  -2.5570   0.00    0.0
2023/11/09 05:59:55.000   23.092573375   72.529629949     5.3654   5  16   3.7035   3.4354   7.9762  -1.2814   2.6556  -2.5573   0.00    0.0
2023/11/09 05:59:56.000   23.092585224   72.529624220     4.0025   5  16   3.7034   3.4355   7.9771  -1.2816   2.6558  -2.5577   0.00    0.0
2023/11/09 05:59:57.000   23.092576330   72.529630063     4.0755   5  16   3.7032   3.4356   7.9779  -1.2819   2.6561  -2.5580   0.00    0.0
2023/11/09 05:59:58.000   23.092571805   72.529620231     4.6986   5  16   3.7031   3.4357   7.9788  -1.2821   2.6563  -2.5583   0.00    0.0
2023/11/09 05:59:59.000   23.092586698   72.529624961     4.4073   5  16   3.7030   3.4358   7.9796  -1.2823   2.6566  -2.5586   0.00    0.0
2023/11/09 06:00:00.000   23.092581868   72.529625416     4.4364   5  16   3.7029   3.4359   7.9804  -1.2826   2.6568  -2.5590   0.00    0.0
2023/11/09 06:00:01.000   23.092571557   72.529622616     3.5425   5  16   3.7028   3.4360   7.9813  -1.2828   2.6571  -2.5593   0.00    0.0
2023/11/09 06:00:02.000   23.092591827   72.529621362     2.6577   5  16   3.7026   3.4362   7.9821  -1.2830   2.6573  -2.5596   0.00    0.0
2023/11/09 06:00:03.000   23.092571844   72.529622318     3.7488   5  16   3.7025   3.4363   7.9829  -1.2833   2.6576  -2.5600   0.00    0.0
2023/11/09 06:00:04.000   23.092582911   72.529621802     3.5509   5  16   3.7024   3.4364   7.9838  -1.2835   2.6578  -2.5603   0.00    0.0
2023/11/09 06:00:05.000   23.092582061   72.529628418     2.9851   5  16   3.7023   3.4365   7.9846  -1.2837   2.6581  -2.5606   0.00    0.0
2023/11/09 06:00:06.000   23.092578244   72.529621920     3.8642   5  16   3.7021   3.4366   7.9854  -1.2840   2.6583  -2.5609   0.00    0.0
2023/11/09 06:00:07.000   23.092587067   72.529623090     2.0388   5  16   3.7020   3.4367   7.9863  -1.2842   2.6586  -2.5613   0.00    0.0
2023/11/09 06:00:08.000   23.092581767   72.529616892     4.1515   5  16   3.7019   3.4368   7.9871  -1.2844   2.6588  -2.5616   0.00    0.0
2023/11/09 06:00:09.000   23.092575606   72.529619638     4.2039   5  16   3.7018   3.4369   7.9879  -1.2847   2.6591  -2.5619   0.00    0.0
2023/11/09 06:00:10.000   23.092582074   72.529625710     3.9396   5  16   3.7016   3.4371   7.9888  -1.2849   2.6593  -2.5623   0.00    0.0
2023/11/09 06:00:11.000   23.092583212   72.529628969     3.4958   5  16   3.7015   3.4372   7.9896  -1.2851   2.6595  -2.5626   0.00    0.0
2023/11/09 06:00:12.000   23.092583900   72.529622505     2.1304   5  16   3.7014   3.4373   7.9904  -1.2854   2.6598  -2.5629   0.00    0.0
2023/11/09 06:00:13.000   23.092582978   72.529624409     4.0882   5  16   3.7013   3.4374   7.9913  -1.2856   2.6600  -2.5632   0.00    0.0
2023/11/09 06:00:14.000   23.092595302   72.529619093     2.3430   5  16   3.7012   3.4375   7.9921  -1.2858   2.6603  -2.5636   0.00    0.0
2023/11/09 06:00:15.000   23.092586368   72.529621423     2.7549   5  16   3.7010   3.4376   7.9930  -1.2861   2.6605  -2.5639   0.00    0.0
2023/11/09 06:00:16.000   23.092579229   72.529617244     4.0427   5  16   3.7009   3.4377   7.9938  -1.2863   2.6608  -2.5642   0.00    0.0
2023/11/09 06:00:17.000   23.092583372   72.529625435     4.2705   5  16   3.7008   3.4378   7.9946  -1.2865   2.6610  -2.5646   0.00    0.0
2023/11/09 06:00:18.000   23.092579351   72.529619338     3.5682   5  16   3.7007   3.4379   7.9955  -1.2868   2.6613  -2.5649   0.00    0.0
2023/11/09 06:00:19.000   23.092585012   72.529620634     2.8962   5  16   3.7005   3.4381   7.9963  -1.2870   2.6615  -2.5652   0.00    0.0
2023/11/09 06:00:20.000   23.092580220   72.529617170     2.8881   5  16   3.7004   3.4382   7.9971  -1.2872   2.6618  -2.5655   0.00    0.0
2023/11/09 06:00:21.000   23.092579458   72.529627949     4.1742   5  16   3.7003   3.4383   7.9980  -1.2874   2.6620  -2.5659   0.00    0.0
2023/11/09 06:00:22.000   23.092588380   72.529621427     4.3107   5  16   3.7002   3.4384   7.9988  -1.2877   2.6623  -2.5662   0.00    0.0
2023/11/09 06:00:23.000   23.092584468   72.529625216     3.4720   5  16   3.7000   3.4385   7.9996  -1.2879   2.6625  -2.5665   0.00    0.0
2023/11/09 06:00:24.000   23.092586078   72.529629736     4.3728   5  16   3.6999   3.4386   8.0005  -1.2881   2.6628  -2.5668   0.00    0.0
2023/11/09 06:00:25.000   23.092584070   72.529628968     3.1380   5  16   3.6998   3.4387   8.0013  -1.2884   2.6630  -2.5672   0.00    0.0
2023/11/09 06:00:26.000   23.092584510   72.529628626     3.9472   5  16   3.6997   3.4388   8.0022  -1.2886   2.6632  -2.5675   0.00    0.0
2023/11/09 06:00:27.000   23.092578697   72.529633420     5.2754   5  16   3.6996   3.4389   8.0030  -1.2888   2.6635  -2.5678   0.00    0.0
2023/11/09 06:00:28.000   23.092573185   72.529626045     4.4325   5  16   3.6994   3.4391   8.0038  -1.2891   2.6637  -2.5681   0.00    0.0
2023/11/09 06:00:29.000   23.092573648   72.529626903     6.4549   5  16   3.6993   3.4392   8.0047  -1.2893   2.6640  -2.5685   0.00    0.0
2023/11/09 06:00:30.000   23.092578482   72.529627550     5.1549   5  16   3.6992   3.4393   8.0055  -1.2895   2.6642  -2.5688   0.00    0.0
2023/11/09 06:00:31.000   23.092574174   72.529626688     5.8310   5  16   3.6991   3.4394   8.0063  -1.2897   2.6645  -2.5691   0.00    0.0
2023/11/09 06:00:32.000   23.092574337   72.529628556     3.8867   5  16   3.6989   3.4395   8.0072  -1.2900   2.6647  -2.5694   0.00    0.0
2023/11/09 06:00:33.000   23.092574916   72.529631179     5.7131   5  16   3.6988   3.4396   8.0080  -1.2902   2.6650  -2.5698   0.00    0.0
2023/11/09 06:00:34.000   23.092570704   72.529636465     5.2169   5  16   3.6987   3.4397   8.0089  -1.2904   2.6652  -2.5701   0.00    0.0
2023/11/09 06:00:35.000   23.092575596   72.529632014     4.4705   5  16   3.6986   3.4398   8.0097  -1.2907   2.6654  -2.5704   0.00    0.0
2023/11/09 06:00:36.000   23.092587604   72.529640313     5.4694   5  15   4.0878   3.5044   8.0991  -0.7083   2.8116  -2.1281   0.00    0.0
2023/11/09 06:00:37.000   23.092577574   72.529637319     4.2061   5  16   3.6983   3.4401   8.0114  -1.2911   2.6659  -2.5711   0.00    0.0
2023/11/09 06:00:38.000   23.092573858   72.529625841     7.0081   5  15   3.8363   3.6347   8.4175  -0.6863   2.0202  -3.0404   0.00    0.0
2023/11/09 06:00:39.000   23.092570404   72.529627736     6.7702   5  15   3.8362   3.6348   8.4185  -0.6869   2.0204  -3.0408   0.00    0.0
2023/11/09 06:00:40.000   23.092583648   72.529636024     4.9683   5  16   3.6980   3.4404   8.0139  -1.2918   2.6667  -2.5720   0.00    0.0
2023/11/09 06:00:41.000   23.092583866   72.529636410     5.2491   5  16   3.6978   3.4405   8.0147  -1.2920   2.6669  -2.5724   0.00    0.0
2023/11/09 06:00:42.000   23.092573326   72.529634621     5.4854   5  16   3.6977   3.4406   8.0156  -1.2923   2.6671  -2.5727   0.00    0.0
2023/11/09 06:00:43.000   23.092580763   72.529626710     5.4324   5  15   3.8357   3.6350   8.4223  -0.6889   2.0215  -3.0423   0.00    0.0
2023/11/09 06:00:44.000   23.092576457   72.529627027     5.5273   5  15   3.8356   3.6350   8.4233  -0.6894   2.0218  -3.0427   0.00    0.0
2023/11/09 06:00:45.000   23.092579373   72.529634973     7.9662   5  15   3.8355   3.6351   8.4243  -0.6899   2.0220  -3.0430   0.00    0.0
2023/11/09 06:00:46.000   23.092589990   72.529634756     4.2175   5  16   3.6972   3.4411   8.0189  -1.2932   2.6681  -2.5740   0.00    0.0
2023/11/09 06:00:47.000   23.092585846   72.529638510     3.7816   5  16   3.6971   3.4412   8.0197  -1.2934   2.6683  -2.5743   0.00    0.0
2023/11/09 06:00:48.000   23.092588333   72.529628003     2.9777   5  16   3.6970   3.4413   8.0206  -1.2936   2.6686  -2.5746   0.00    0.0
2023/11/09 06:00:49.000   23.092590659   72.529630264     3.3628   5  16   3.6969   3.4414   8.0214  -1.2939   2.6688  -2.5749   0.00    0.0
2023/11/09 06:00:50.000   23.092586972   72.529627108     3.5695   5  16   3.6967   3.4415   8.0223  -1.2941   2.6691  -2.5753   0.00    0.0
2023/11/09 06:00:51.000   23.092580470   72.529630018     2.7387   5  16   3.6966   3.4416   8.0231  -1.2943   2.6693  -2.5756   0.00    0.0
2023/11/09 06:00:52.000   23.092587416   72.529631615     3.8986   5  16   3.6965   3.4417   8.0239  -1.2945   2.6695  -2.5759   0.00    0.0
2023/11/09 06:00:53.000   23.092583919   72.529628122     3.5001   5  16   3.6964   3.4418   8.0248  -1.2948   2.6698  -2.5762   0.00    0.0
2023/11/09 06:00:54.000   23.092587411   72.529626545     3.7863   5  16   3.6962   3.4420   8.0256  -1.2950   2.6700  -2.5765   0.00    0.0
2023/11/09 06:00:55.000   23.092584781   72.529627255     3.0467   5  16   3.6961   3.4421   8.0264  -1.2952   2.6703  -2.5769   0.00    0.0
2023/11/09 06:00:56.000   23.092583197   72.529625296     2.1673   5  16   3.6960   3.4422   8.0273  -1.2954   2.6705  -2.5772   0.00    0.0
2023/11/09 06:00:57.000   23.092584649   72.529627309     3.2795   5  16   3.6959   3.4423   8.0281  -1.2957   2.6707  -2.5775   0.00    0.0
2023/11/09 06:00:58.000   23.092589279   72.529628387     3.1401   5  16   3.6958   3.4424   8.0290  -1.2959   2.6710  -2.5778   0.00    0.0
2023/11/09 06:00:59.000   23.092576231   72.529624127     2.1056   5  16   3.6956   3.4425   8.0298  -1.2961   2.6712  -2.5781   0.00    0.0
2023/11/09 06:01:00.000   23.092583200   72.529629736     2.7622   5  16   3.6955   3.4426   8.0306  -1.2963   2.6715  -2.5785   0.00    0.0
2023/11/09 06:01:01.000   23.092583282   72.529622243     1.8178   5  16   3.6954   3.4427   8.0315  -1.2966   2.6717  -2.5788   0.00    0.0
2023/11/09 06:01:02.000   23.092586112   72.529632516     3.1513   5  16   3.6953   3.4429   8.0323  -1.2968   2.6719  -2.5791   0.00    0.0
2023/11/09 06:01:03.000   23.092598166   72.529612987    -0.3639   5  15   3.8363   4.2616   9.7846  -2.0668   4.6011  -3.5233   0.00    0.0
2023/11/09 06:01:04.000   23.092588248   72.529625909     1.5742   5  15   3.8542   3.6716   8.6240  -1.7551   3.3375  -3.1768   0.00    0.0
2023/11/09 06:01:05.000   23.092592383   72.529623709     2.1978   5  16   3.6949   3.4432   8.0348  -1.2975   2.6727  -2.5801   0.00    0.0
2023/11/09 06:01:06.000   23.092584934   72.529624478     1.7390   5  16   3.6948   3.4433   8.0357  -1.2977   2.6729  -2.5804   0.00    0.0
2023/11/09 06:01:07.000   23.092586516   72.529621647     1.5976   5  16   3.6947   3.4434   8.0365  -1.2979   2.6731  -2.5807   0.00    0.0
2023/11/09 06:01:08.000   23.092586886   72.529619339     1.9053   5  16   3.6945   3.4435   8.0374  -1.2981   2.6734  -2.5810   0.00    0.0
2023/11/09 06:01:09.000   23.092582964   72.529628066     2.6598   5  16   3.6944   3.4436   8.0382  -1.2984   2.6736  -2.5813   0.00    0.0
2023/11/09 06:01:10.000   23.092587458   72.529620280     0.7390   5  16   3.6943   3.4437   8.0390  -1.2986   2.6738  -2.5817   0.00    0.0
2023/11/09 06:01:11.000   23.092582738   72.529624931     2.4273   5  16   3.6942   3.4439   8.0399  -1.2988   2.6741  -2.5820   0.00    0.0
2023/11/09 06:01:12.000   23.092578108   72.529625114     2.1736   5  16   3.6941   3.4440   8.0407  -1.2990   2.6743  -2.5823   0.00    0.0
2023/11/09 06:01:13.000   23.092581918   72.529629928     3.3387   5  16   3.6939   3.4441   8.0416  -1.2993   2.6745  -2.5826   0.00    0.0
2023/11/09 06:01:14.000   23.092576546   72.529624327     2.7858   5  16   3.6938   3.4442   8.0424  -1.2995   2.6748  -2.5829   0.00    0.0
2023/11/09 06:01:15.000   23.092577755   72.529626433     2.9242   5  16   3.6937   3.4443   8.0432  -1.2997   2.6750  -2.5832   0.00    0.0
2023/11/09 06:01:16.000   23.092579717   72.529628416     3.3519   5  16   3.6936   3.4444   8.0441  -1.2999   2.6753  -2.5836   0.00    0.0
2023/11/09 06:01:17.000   23.092572569   72.529628612     2.9927   5  16   3.6934   3.4445   8.0449  -1.3002   2.6755  -2.5839   0.00    0.0
2023/11/09 06:01:18.000   23.092591414   72.529628211     3.3278   5  16   3.6933   3.4446   8.0458  -1.3004   2.6757  -2.5842   0.00    0.0
2023/11/09 06:01:19.000   23.092584731   72.529628988     3.6347   5  16   3.6932   3.4448   8.0466  -1.3006   2.6760  -2.5845   0.00    0.0
2023/11/09 06:01:20.000   23.092589337   72.529625382     4.7817   5  16   3.6931   3.4449   8.0474  -1.3008   2.6762  -2.5848   0.00    0.0
2023/11/09 06:01:21.000   23.092584374   72.529630268     3.7022   5  16   3.6930   3.4450   8.0483  -1.3011   2.6764  -2.5851   0.00    0.0
2023/11/09 06:01:22.000   23.092589237   72.529629172     4.5502   5  16   3.6928   3.4451   8.0491  -1.3013   2.6767  -2.5855   0.00    0.0
2023/11/09 06:01:23.000   23.092580622   72.529627018     3.5865   5  16   3.6927   3.4452   8.0500  -1.3015   2.6769  -2.5858   0.00    0.0
2023/11/09 06:01:24.000   23.092578066   72.529635567     3.6988   5  16   3.6926   3.4453   8.0508  -1.3017   2.6771  -2.5861   0.00    0.0
2023/11/09 06:01:25.000   23.092582708   72.529630174     4.2102   5  16   3.6925   3.4454   8.0516  -1.3019   2.6774  -2.5864   0.00    0.0
2023/11/09 06:01:26.000   23.092578812   72.529626840     4.3607   5  16   3.6923   3.4455   8.0525  -1.3022   2.6776  -2.5867   0.00    0.0
2023/11/09 06:01:27.000   23.092579710   72.529633747     4.7696   5  16   3.6922   3.4456   8.0533  -1.3024   2.6778  -2.5870   0.00    0.0
2023/11/09 06:01:28.000   23.092578522   72.529632308     4.8982   5  16   3.6921   3.4458   8.0542  -1.3026   2.6781  -2.5874   0.00    0.0
2023/11/09 06:01:29.000   23.092578004   72.529631611     4.9984   5  16   3.6920   3.4459   8.0550  -1.3028   2.6783  -2.5877   0.00    0.0
2023/11/09 06:01:30.000   23.092584351   72.529629641     4.4152   5  16   3.6919   3.4460   8.0558  -1.3031   2.6785  -2.5880   0.00    0.0
2023/11/09 06:01:31.000   23.092575557   72.529626503     5.5822   5  16   3.6917   3.4461   8.0567  -1.3033   2.6788  -2.5883   0.00    0.0
2023/11/09 06:01:32.000   23.092579219   72.529636133     5.9205   5  16   3.6916   3.4462   8.0575  -1.3035   2.6790  -2.5886   0.00    0.0
2023/11/09 06:01:33.000   23.092575767   72.529631248     5.6260   5  16   3.6915   3.4463   8.0584  -1.3037   2.6792  -2.5889   0.00    0.0
2023/11/09 06:01:34.000   23.092583816   72.529638564     4.1772   5  16   3.6914   3.4464   8.0592  -1.3039   2.6795  -2.5892   0.00    0.0
2023/11/09 06:01:35.000   23.092577893   72.529632746     4.5731   5  16   3.6912   3.4465   8.0600  -1.3042   2.6797  -2.5896   0.00    0.0
2023/11/09 06:01:36.000   23.092573675   72.529626743     5.5448   5  16   3.6911   3.4467   8.0609  -1.3044   2.6799  -2.5899   0.00    0.0
2023/11/09 06:01:37.000   23.092586709   72.529630206     3.2093   5  16   3.6910   3.4468   8.0617  -1.3046   2.6802  -2.5902   0.00    0.0
2023/11/09 06:01:38.000   23.092582098   72.529630769     4.1450   5  16   3.6909   3.4469   8.0626  -1.3048   2.6804  -2.5905   0.00    0.0
2023/11/09 06:01:39.000   23.092585422   72.529626656     3.8827   5  16   3.6908   3.4470   8.0634  -1.3050   2.6806  -2.5908   0.00    0.0
2023/11/09 06:01:40.000   23.092583932   72.529627709     4.5831   5  16   3.6906   3.4471   8.0643  -1.3053   2.6808  -2.5911   0.00    0.0
2023/11/09 06:01:41.000   23.092586613   72.529630903     2.7946   5  16   3.6905   3.4472   8.0651  -1.3055   2.6811  -2.5914   0.00    0.0
2023/11/09 06:01:42.000   23.092574331   72.529626648     5.8553   5  16   3.6904   3.4473   8.0659  -1.3057   2.6813  -2.5918   0.00    0.0
2023/11/09 06:01:43.000   23.092580799   72.529626391     4.4508   5  16   3.6903   3.4474   8.0668  -1.3059   2.6815  -2.5921   0.00    0.0
2023/11/09 06:01:44.000   23.092584610   72.529628488     4.4801   5  16   3.6902   3.4475   8.0676  -1.3061   2.6818  -2.5924   0.00    0.0
2023/11/09 06:01:45.000   23.092576789   72.529624695     3.5306   5  16   3.6900   3.4477   8.0685  -1.3064   2.6820  -2.5927   0.00    0.0
2023/11/09 06:01:46.000   23.092574057   72.529625352     4.5094   5  16   3.6899   3.4478   8.0693  -1.3066   2.6822  -2.5930   0.00    0.0
2023/11/09 06:01:47.000   23.092591900   72.529636430     2.3490   5  15   3.6899   3.5165   8.0949  -1.3000   2.5997  -2.5964   0.00    0.0
2023/11/09 06:01:48.000   23.092582863   72.529633699     6.4186   5  16   3.6897   3.4480   8.0710  -1.3070   2.6827  -2.5936   0.00    0.0
2023/11/09 06:01:49.000   23.092591889   72.529635217     3.9207   5  16   3.6896   3.4481   8.0718  -1.3072   2.6829  -2.5939   0.00    0.0
2023/11/09 06:01:50.000   23.092587428   72.529624440     4.3724   5  16   3.6894   3.4482   8.0727  -1.3075   2.6831  -2.5943   0.00    0.0
2023/11/09 06:01:51.000   23.092606864   72.529620847     1.1546   5  16   3.6893   3.4483   8.0735  -1.3077   2.6834  -2.5946   0.00    0.0
2023/11/09 06:01:52.000   23.092609588   72.529635487     2.6616   5  16   3.6892   3.4484   8.0744  -1.3079   2.6836  -2.5949   0.00    0.0
2023/11/09 06:01:53.000   23.092628377   72.529643869     3.8580   5  16   3.6891   3.4486   8.0752  -1.3081   2.6838  -2.5952   0.00    0.0
2023/11/09 06:01:54.000   23.092636918   72.529644992     4.1628   5  16   3.6889   3.4487   8.0760  -1.3084   2.6841  -2.5955   0.00    0.0
2023/11/09 06:01:55.000   23.092653636   72.529683017     6.9566   5  16   3.6888   3.4488   8.0769  -1.3086   2.6843  -2.5958   0.00    0.0
2023/11/09 06:01:56.000   23.092685413   72.529679295     3.3705   5  16   3.6887   3.4489   8.0777  -1.3088   2.6845  -2.5961   0.00    0.0
2023/11/09 06:01:57.000   23.092733692   72.529682815     1.6628   5  16   3.6886   3.4490   8.0786  -1.3090   2.6847  -2.5965   0.00    0.0
2023/11/09 06:01:58.000   23.092757524   72.529703063     1.4890   5  16   3.6885   3.4491   8.0794  -1.3092   2.6850  -2.5968   0.00    0.0
2023/11/09 06:01:59.000   23.092790697   72.529714274     2.1893   5  16   3.6883   3.4492   8.0802  -1.3095   2.6852  -2.5971   0.00    0.0
2023/11/09 06:02:00.000   23.092838649   72.529724910     1.1880   5  16   3.6882   3.4493   8.0811  -1.3097   2.6854  -2.5974   0.00    0.0
2023/11/09 06:02:01.000   23.092880672   72.529739442     1.5204   5  16   3.6881   3.4494   8.0819  -1.3099   2.6856  -2.5977   0.00    0.0
2023/11/09 06:02:02.000   23.092924947   72.529757803     2.6093   5  16   3.6880   3.4496   8.0828  -1.3101   2.6859  -2.5980   0.00    0.0
2023/11/09 06:02:03.000   23.092973276   72.529782636     3.2282   5  16   3.6879   3.4497   8.0836  -1.3103   2.6861  -2.5984   0.00    0.0
2023/11/09 06:02:04.000   23.093040883   72.529793887     1.7804   5  16   3.6878   3.4498   8.0844  -1.3106   2.6863  -2.5987   0.00    0.0
2023/11/09 06:02:05.000   23.093085300   72.529815944     2.3579   5  16   3.6876   3.4499   8.0853  -1.3108   2.6865  -2.5990   0.00    0.0
2023/11/09 06:02:06.000   23.093144437   72.529828985     3.7427   5  16   3.6875   3.4500   8.0861  -1.3110   2.6867  -2.5993   0.00    0.0
2023/11/09 06:02:07.000   23.093183199   72.529858281     3.9534   5  16   3.6874   3.4501   8.0870  -1.3112   2.6870  -2.5996   0.00    0.0
2023/11/09 06:02:08.000   23.093227600   72.529884077     4.3613   5  16   3.6873   3.4502   8.0878  -1.3115   2.6872  -2.6000   0.00    0.0
2023/11/09 06:02:09.000   23.093276564   72.529913108     3.2258   5  16   3.6872   3.4503   8.0886  -1.3117   2.6874  -2.6003   0.00    0.0
2023/11/09 06:02:10.000   23.093316540   72.529945741     5.2473   5  16   3.6870   3.4504   8.0895  -1.3119   2.6876  -2.6006   0.00    0.0
2023/11/09 06:02:11.000   23.093376673   72.529968855     3.6669   5  16   3.6869   3.4505   8.0903  -1.3121   2.6879  -2.6009   0.00    0.0
2023/11/09 06:02:12.000   23.093437890   72.529987698     4.2367   5  16   3.6868   3.4507   8.0912  -1.3123   2.6881  -2.6012   0.00    0.0
2023/11/09 06:02:13.000   23.093468246   72.530051081    12.4810   5  16   3.6867   3.4508   8.0920  -1.3126   2.6883  -2.6016   0.00    0.0
2023/11/09 06:02:14.000   23.093565045   72.530036810     2.0718   5  16   3.6866   3.4509   8.0929  -1.3128   2.6885  -2.6019   0.00    0.0
2023/11/09 06:02:15.000   23.093643225   72.530072735     4.2839   5  16   3.6865   3.4510   8.0937  -1.3130   2.6887  -2.6022   0.00    0.0
2023/11/09 06:02:16.000   23.093722622   72.530091813     3.0483   5  16   3.6863   3.4511   8.0945  -1.3132   2.6890  -2.6025   0.00    0.0
2023/11/09 06:02:17.000   23.093798152   72.530132859     3.7719   5  16   3.6862   3.4512   8.0954  -1.3135   2.6892  -2.6028   0.00    0.0
2023/11/09 06:02:18.000   23.093877662   72.530151143     3.7759   5  16   3.6861   3.4513   8.0962  -1.3137   2.6894  -2.6032   0.00    0.0
2023/11/09 06:02:19.000   23.093967221   72.530178950     2.6923   5  16   3.6860   3.4514   8.0970  -1.3139   2.6896  -2.6035   0.00    0.0
2023/11/09 06:02:20.000   23.094038394   72.530213826     5.1525   5  16   3.6859   3.4515   8.0979  -1.3141   2.6898  -2.6038   0.00    0.0
2023/11/09 06:02:21.000   23.094129152   72.530241251     3.2919   5  16   3.6858   3.4517   8.0987  -1.3144   2.6901  -2.6041   0.00    0.0
2023/11/09 06:02:22.000   23.094216464   72.530270116     4.5372   5  16   3.6856   3.4518   8.0996  -1.3146   2.6903  -2.6045   0.00    0.0
2023/11/09 06:02:23.000   23.094309925   72.530296627     5.0299   5  16   3.6855   3.4519   8.1004  -1.3148   2.6905  -2.6048   0.00    0.0
2023/11/09 06:02:24.000   23.094400767   72.530331639     4.9674   5  16   3.6854   3.4520   8.1012  -1.3150   2.6907  -2.6051   0.00    0.0
2023/11/09 06:02:25.000   23.094503919   72.530353239     4.0589   5  16   3.6853   3.4521   8.1021  -1.3152   2.6909  -2.6054   0.00    0.0
2023/11/09 06:02:26.000   23.094595784   72.530391129     5.0317   5  16   3.6852   3.4522   8.1029  -1.3155   2.6911  -2.6057   0.00    0.0
2023/11/09 06:02:27.000   23.094682969   72.530422730     5.0185   5  16   3.6851   3.4523   8.1038  -1.3157   2.6914  -2.6061   0.00    0.0
2023/11/09 06:02:28.000   23.094796694   72.530444690     5.0253   5  16   3.6849   3.4524   8.1046  -1.3159   2.6916  -2.6064   0.00    0.0
2023/11/09 06:02:29.000   23.094892166   72.530478828     5.8049   5  16   3.6848   3.4525   8.1054  -1.3161   2.6918  -2.6067   0.00    0.0
2023/11/09 06:02:30.000   23.095005824   72.530522101     4.7354   5  16   3.6847   3.4526   8.1063  -1.3164   2.6920  -2.6070   0.00    0.0
2023/11/09 06:02:31.000   23.095112151   72.530546358     5.1504   5  16   3.6846   3.4528   8.1071  -1.3166   2.6922  -2.6074   0.00    0.0
2023/11/09 06:02:32.000   23.095224711   72.530584969     5.8316   5  16   3.6845   3.4529   8.1080  -1.3168   2.6924  -2.6077   0.00    0.0
2023/11/09 06:02:33.000   23.095326116   72.530616198     6.3403   5  16   3.6844   3.4530   8.1088  -1.3170   2.6927  -2.6080   0.00    0.0
2023/11/09 06:02:34.000   23.095437700   72.530654574     6.8191   5  16   3.6842   3.4531   8.1096  -1.3173   2.6929  -2.6083   0.00    0.0
2023/11/09 06:02:35.000   23.095550179   72.530687989     7.1953   5  16   3.6841   3.4532   8.1105  -1.3175   2.6931  -2.6087   0.00    0.0
2023/11/09 06:02:36.000   23.095676745   72.530717990     6.5781   5  16   3.6840   3.4533   8.1113  -1.3177   2.6933  -2.6090   0.00    0.0
2023/11/09 06:02:37.000   23.095782993   72.530752319     7.6777   5  16   3.6839   3.4534   8.1121  -1.3179   2.6935  -2.6093   0.00    0.0
2023/11/09 06:02:38.000   23.095914160   72.530788604     8.5828   5  16   3.6838   3.4535   8.1130  -1.3182   2.6937  -2.6096   0.00    0.0
2023/11/09 06:02:39.000   23.096027117   72.530818377     7.0653   5  16   3.6837   3.4536   8.1138  -1.3184   2.6939  -2.6100   0.00    0.0
2023/11/09 06:02:40.000   23.096160553   72.530863496     6.7292   5  16   3.6836   3.4537   8.1147  -1.3186   2.6941  -2.6103   0.00    0.0
2023/11/09 06:02:41.000   23.096271453   72.530894950     8.8233   5  16   3.6834   3.4538   8.1155  -1.3188   2.6944  -2.6106   0.00    0.0
2023/11/09 06:02:42.000   23.096402538   72.530918301     8.8274   5  16   3.6833   3.4540   8.1163  -1.3191   2.6946  -2.6110   0.00    0.0
2023/11/09 06:02:43.000   23.096521110   72.530955570     8.6419   5  16   3.6832   3.4541   8.1172  -1.3193   2.6948  -2.6113   0.00    0.0
2023/11/09 06:02:44.000   23.096649391   72.531008519     8.5412   5  16   3.6831   3.4542   8.1180  -1.3195   2.6950  -2.6116   0.00    0.0
2023/11/09 06:02:45.000   23.096765369   72.531028223     8.9076   5  16   3.6830   3.4543   8.1188  -1.3197   2.6952  -2.6119   0.00    0.0
2023/11/09 06:02:46.000   23.096895372   72.531064798     8.0245   5  16   3.6829   3.4544   8.1197  -1.3200   2.6954  -2.6123   0.00    0.0
2023/11/09 06:02:47.000   23.097005418   72.531101007    10.1722   5  17   3.4080   3.2236   7.6119  -0.0983   1.9374  -1.6963   0.00    0.0
2023/11/09 06:02:48.000   23.097115481   72.531133933    10.4230   5  17   3.4079   3.2237   7.6128  -0.1005   1.9377  -1.6969   0.00    0.0
2023/11/09 06:02:49.000   23.097230322   72.531172494     9.1769   5  17   3.4078   3.2237   7.6138  -0.1026   1.9380  -1.6974   0.00    0.0
2023/11/09 06:02:50.000   23.097360870   72.531214997    10.0360   5  17   3.4076   3.2238   7.6147  -0.1047   1.9382  -1.6979   0.00    0.0
2023/11/09 06:02:51.000   23.097472872   72.531240092    11.5748   5  17   3.4075   3.2239   7.6157  -0.1067   1.9385  -1.6984   0.00    0.0
2023/11/09 06:02:52.000   23.097589109   72.531276602    12.8470   5  17   3.4074   3.2240   7.6166  -0.1087   1.9387  -1.6990   0.00    0.0
2023/11/09 06:02:53.000   23.097721770   72.531312026    12.1753   5  17   3.4072   3.2241   7.6175  -0.1107   1.9390  -1.6995   0.00    0.0
2023/11/09 06:02:54.000   23.097842209   72.531344269    12.7859   5  17   3.4071   3.2241   7.6185  -0.1126   1.9393  -1.7000   0.00    0.0
2023/11/09 06:02:55.000   23.097968299   72.531380627    12.0443   5  17   3.4070   3.2242   7.6194  -0.1145   1.9395  -1.7006   0.00    0.0
2023/11/09 06:02:56.000   23.098084702   72.531412625    12.9560   5  17   3.4069   3.2243   7.6203  -0.1163   1.9398  -1.7011   0.00    0.0
2023/11/09 06:02:57.000   23.098214789   72.531444865    13.1480   5  17   3.4067   3.2244   7.6213  -0.1182   1.9400  -1.7016   0.00    0.0
2023/11/09 06:02:58.000   23.098328069   72.531479856    12.9994   5  17   3.4066   3.2245   7.6222  -0.1200   1.9403  -1.7021   0.00    0.0
2023/11/09 06:02:59.000   23.098448860   72.531520899    13.6603   5  17   3.4065   3.2245   7.6232  -0.1218   1.9405  -1.7027   0.00    0.0
2023/11/09 06:03:00.000   23.098560212   72.531548079    14.3933   5  17   3.4063   3.2246   7.6241  -0.1235   1.9408  -1.7032   0.00    0.0
2023/11/09 06:03:01.000   23.098673148   72.531585785    12.7950   5  17   3.4062   3.2247   7.6250  -0.1252   1.9411  -1.7037   0.00    0.0
2023/11/09 06:03:02.000   23.098788947   72.531619706    13.8120   5  17   3.4061   3.2248   7.6260  -0.1269   1.9413  -1.7043   0.00    0.0
2023/11/09 06:03:03.000   23.098904218   72.531642881    15.3764   5  17   3.4059   3.2249   7.6269  -0.1286   1.9416  -1.7048   0.00    0.0
2023/11/09 06:03:04.000   23.099021350   72.531678254    14.3338   5  17   3.4058   3.2249   7.6279  -0.1303   1.9418  -1.7053   0.00    0.0
2023/11/09 06:03:05.000   23.099126177   72.531715664    13.3433   5  17   3.4057   3.2250   7.6288  -0.1319   1.9421  -1.7058   0.00    0.0
2023/11/09 06:03:06.000   23.099240091   72.531747855    13.8380   5  17   3.4055   3.2251   7.6297  -0.1335   1.9424  -1.7064   0.00    0.0
2023/11/09 06:03:07.000   23.099358059   72.531786029    12.8328   5  17   3.4054   3.2252   7.6307  -0.1351   1.9426  -1.7069   0.00    0.0
2023/11/09 06:03:08.000   23.099482284   72.531821956    13.3295   5  17   3.4053   3.2253   7.6316  -0.1367   1.9429  -1.7074   0.00    0.0
2023/11/09 06:03:09.000   23.099594801   72.531840799    14.0838   5  17   3.4051   3.2254   7.6326  -0.1382   1.9431  -1.7079   0.00    0.0
2023/11/09 06:03:10.000   23.099714900   72.531887551    11.8323   5  17   3.4050   3.2254   7.6335  -0.1398   1.9434  -1.7085   0.00    0.0
2023/11/09 06:03:11.000   23.099830439   72.531926343    11.4467   5  17   3.4049   3.2255   7.6344  -0.1413   1.9437  -1.7090   0.00    0.0
2023/11/09 06:03:12.000   23.099956056   72.531968471    11.2731   5  17   3.4048   3.2256   7.6354  -0.1428   1.9439  -1.7095   0.00    0.0
2023/11/09 06:03:13.000   23.100071849   72.531994478    13.2874   5  17   3.4046   3.2257   7.6363  -0.1443   1.9442  -1.7101   0.00    0.0
2023/11/09 06:03:14.000   23.100198794   72.532034142    11.0509   5  17   3.4045   3.2258   7.6373  -0.1458   1.9444  -1.7106   0.00    0.0
2023/11/09 06:03:15.000   23.100321367   72.532071190    11.5735   5  17   3.4044   3.2258   7.6382  -0.1472   1.9447  -1.7111   0.00    0.0
2023/11/09 06:03:16.000   23.100455480   72.532107243    11.3871   5  17   3.4042   3.2259   7.6391  -0.1487   1.9449  -1.7116   0.00    0.0
2023/11/09 06:03:17.000   23.100577248   72.532153808    10.1532   5  17   3.4041   3.2260   7.6401  -0.1501   1.9452  -1.7122   0.00    0.0
2023/11/09 06:03:18.000   23.100703257   72.532181978    10.8389   5  17   3.4040   3.2261   7.6410  -0.1515   1.9454  -1.7127   0.00    0.0
2023/11/09 06:03:19.000   23.100837378   72.532224484    10.6449   5  17   3.4038   3.2262   7.6420  -0.1529   1.9457  -1.7132   0.00    0.0
2023/11/09 06:03:20.000   23.100967427   72.532271759     9.3985   5  17   3.4037   3.2262   7.6429  -0.1543   1.9460  -1.7138   0.00    0.0
2023/11/09 06:03:21.000   23.101089427   72.532297579     9.6750   5  17   3.4036   3.2263   7.6439  -0.1557   1.9462  -1.7143   0.00    0.0
2023/11/09 06:03:22.000   23.101229107   72.532338596     9.3162   5  17   3.4035   3.2264   7.6448  -0.1571   1.9465  -1.7148   0.00    0.0
2023/11/09 06:03:23.000   23.101364255   72.532375578     9.4461   5  17   3.4033   3.2265   7.6457  -0.1584   1.9467  -1.7154   0.00    0.0
2023/11/09 06:03:24.000   23.101496571   72.532415130     7.7735   5  17   3.4032   3.2266   7.6467  -0.1598   1.9470  -1.7159   0.00    0.0
2023/11/09 06:03:25.000   23.101626285   72.532451623     8.4278   5  17   3.4031   3.2266   7.6476  -0.1611   1.9472  -1.7164   0.00    0.0
2023/11/09 06:03:26.000   23.101763788   72.532488231     9.1890   5  17   3.4029   3.2267   7.6486  -0.1624   1.9475  -1.7169   0.00    0.0
2023/11/09 06:03:27.000   23.101899599   72.532531723     7.1420   5  17   3.4028   3.2268   7.6495  -0.1638   1.9477  -1.7175   0.00    0.0
2023/11/09 06:03:28.000   23.102040889   72.532572600     7.5896   5  17   3.4027   3.2269   7.6505  -0.1651   1.9480  -1.7180   0.00    0.0
2023/11/09 06:03:29.000   23.102155479   72.532603322     7.7682   5  17   3.4025   3.2270   7.6514  -0.1664   1.9483  -1.7185   0.00    0.0
2023/11/09 06:03:30.000   23.102289658   72.532644255     6.5547   5  17   3.4024   3.2270   7.6523  -0.1676   1.9485  -1.7191   0.00    0.0
2023/11/09 06:03:31.000   23.102424243   72.532691255     4.4950   5  17   3.4023   3.2271   7.6533  -0.1689   1.9488  -1.7196   0.00    0.0
2023/11/09 06:03:32.000   23.102498792   72.532646776    21.2607   5  17   3.4022   3.2272   7.6542  -0.1702   1.9490  -1.7201   0.00    0.0
2023/11/09 06:03:33.000   23.102665136   72.532744852     5.9141   5  16   3.5286   3.4509   8.0514   1.0560   0.8666  -2.3015   0.00    0.0
2023/11/09 06:03:34.000   23.102796915   72.532793021     5.4008   5  17   3.4019   3.2274   7.6561  -0.1727   1.9495  -1.7212   0.00    0.0
2023/11/09 06:03:35.000   23.102916955   72.532820642     7.0647   5  16   3.5283   3.4510   8.0535   1.0555   0.8673  -2.3025   0.00    0.0
2023/11/09 06:03:36.000   23.103044604   72.532855507     6.2434   5  16   3.5282   3.4510   8.0546   1.0553   0.8677  -2.3031   0.00    0.0
2023/11/09 06:03:37.000   23.103168761   72.532885162     6.7070   5  17   3.4015   3.2276   7.6590  -0.1763   1.9503  -1.7227   0.00    0.0
2023/11/09 06:03:38.000   23.103329665   72.532982774    -6.5594   5  16   3.4103   3.3349   7.8587   0.4180   1.5270  -1.8443   0.00    0.0
2023/11/09 06:03:39.000   23.103402182   72.532935228    10.1547   5  16   3.4101   3.3350   7.8596   0.4175   1.5272  -1.8448   0.00    0.0
2023/11/09 06:03:40.000   23.103519485   72.532974566     9.5474   5  17   3.4011   3.2279   7.6618  -0.1799   1.9511  -1.7243   0.00    0.0
2023/11/09 06:03:41.000   23.103644046   72.532996194     9.7432   5  17   3.4010   3.2279   7.6627  -0.1811   1.9513  -1.7248   0.00    0.0
2023/11/09 06:03:42.000   23.103757786   72.533009208    13.7223   5  16   3.4097   3.3352   7.8625   0.4161   1.5281  -1.8464   0.00    0.0
2023/11/09 06:03:43.000   23.103898698   72.533087981     6.6225   5  13   3.6106   4.2488   9.0164   0.7865  -3.0222  -2.2044   0.00    0.0
2023/11/09 06:03:44.000   23.104032311   72.533138895     2.6395   5  15   3.5284   3.6379   8.2000   1.0051  -0.9786  -2.2793   0.00    0.0
2023/11/09 06:03:45.000   23.104148581   72.533155817     5.3693   5  16   3.4087   3.3619   7.7406  -0.5062   1.6759  -1.6522   0.00    0.0
2023/11/09 06:03:46.000   23.104259113   72.533188848     3.7639   5  15   3.5106   3.5128   7.8523  -1.0546   1.2131  -1.2757   0.00    0.0
2023/11/09 06:03:47.000   23.104373504   72.533211387     6.1390   5  16   3.4084   3.3621   7.7425  -0.5072   1.6765  -1.6533   0.00    0.0
2023/11/09 06:03:48.000   23.104493841   72.533249310     5.6113   5  16   3.4871   3.3273   7.7436  -0.8117   1.7186  -1.4695   0.00    0.0
2023/11/09 06:03:49.000   23.104597155   72.533261541     7.9099   5  17   3.4000   3.2286   7.6703  -0.1902   1.9533  -1.7290   0.00    0.0
2023/11/09 06:03:50.000   23.104723693   72.533313043     5.4172   5  16   3.4081   3.3623   7.7454  -0.5086   1.6773  -1.6548   0.00    0.0
2023/11/09 06:03:51.000   23.104833526   72.533336015     6.8676   5  15   3.4141   3.5170   7.9985  -0.2164   0.8712  -1.7749   0.00    0.0
2023/11/09 06:03:52.000   23.104944599   72.533369875     7.2115   5  15   3.4140   3.5171   7.9995  -0.2174   0.8716  -1.7755   0.00    0.0
2023/11/09 06:03:53.000   23.105052969   72.533401705     5.6132   5  17   3.3994   3.2289   7.6741  -0.1946   1.9543  -1.7311   0.00    0.0
2023/11/09 06:03:54.000   23.105145795   72.533427211     6.5360   5  17   3.3993   3.2290   7.6751  -0.1957   1.9546  -1.7317   0.00    0.0
2023/11/09 06:03:55.000   23.105242158   72.533458086     6.2605   5  17   3.3992   3.2291   7.6760  -0.1968   1.9549  -1.7322   0.00    0.0
2023/11/09 06:03:56.000   23.105340032   72.533487610     6.6975   5  17   3.3991   3.2292   7.6770  -0.1979   1.9551  -1.7327   0.00    0.0
2023/11/09 06:03:57.000   23.105420023   72.533510630     6.8477   5  17   3.3989   3.2292   7.6779  -0.1989   1.9554  -1.7332   0.00    0.0
2023/11/09 06:03:58.000   23.105508181   72.533538418     7.3169   5  17   3.3988   3.2293   7.6789  -0.2000   1.9556  -1.7337   0.00    0.0
2023/11/09 06:03:59.000   23.105582306   72.533546968     9.0462   5  17   3.3987   3.2294   7.6798  -0.2010   1.9559  -1.7342   0.00    0.0
2023/11/09 06:04:00.000   23.105660823   72.533572958     8.6860   5  17   3.3985   3.2295   7.6808  -0.2021   1.9561  -1.7348   0.00    0.0
2023/11/09 06:04:01.000   23.105734224   72.533607938     6.2380   5  17   3.3984   3.2296   7.6817  -0.2031   1.9564  -1.7353   0.00    0.0
2023/11/09 06:04:02.000   23.105813608   72.533623544     6.9817   5  17   3.3983   3.2297   7.6827  -0.2041   1.9566  -1.7358   0.00    0.0
2023/11/09 06:04:03.000   23.105882156   72.533643818     6.1363   5  17   3.3982   3.2297   7.6836  -0.2051   1.9569  -1.7363   0.00    0.0
2023/11/09 06:04:04.000   23.105918062   72.533683591    13.4174   5  17   3.3980   3.2298   7.6846  -0.2061   1.9571  -1.7368   0.00    0.0
2023/11/09 06:04:05.000   23.105964373   72.533694025    11.9136   5  17   3.3979   3.2299   7.6856  -0.2071   1.9574  -1.7373   0.00    0.0
2023/11/09 06:04:06.000   23.106040547   72.533661896     0.1829   5  17   3.3978   3.2300   7.6865  -0.2081   1.9577  -1.7378   0.00    0.0
2023/11/09 06:04:07.000   23.106081055   72.533650627    -3.8242   5  17   3.3976   3.2301   7.6875  -0.2091   1.9579  -1.7383   0.00    0.0
2023/11/09 06:04:08.000   23.106081386   72.533716271     8.5889   5  17   3.3975   3.2302   7.6884  -0.2101   1.9582  -1.7388   0.00    0.0
2023/11/09 06:04:09.000   23.106081635   72.533752356    17.1305   5  17   3.3974   3.2302   7.6894  -0.2111   1.9584  -1.7393   0.00    0.0
2023/11/09 06:04:10.000   23.106107537   72.533768501    18.3632   5  17   3.3973   3.2303   7.6903  -0.2120   1.9587  -1.7398   0.00    0.0
2023/11/09 06:04:11.000   23.106133507   72.533797584    20.5600   5  16   3.4841   3.3283   7.7672  -0.8157   1.7233  -1.4802   0.00    0.0
2023/11/09 06:04:12.000   23.106158877   72.533723878     4.4283   5  16   3.4157   3.6651   8.6050  -0.8145   3.2427  -2.0992   0.00    0.0
2023/11/09 06:04:13.000   23.106175156   72.533756456     8.3090   5  16   3.4156   3.6652   8.6061  -0.8151   3.2431  -2.0999   0.00    0.0
2023/11/09 06:04:14.000   23.106218606   72.533705125    -4.0043   5  16   3.4155   3.6654   8.6073  -0.8157   3.2436  -2.1006   0.00    0.0
2023/11/09 06:04:15.000   23.106214918   72.533766012     7.5055   5  16   3.4154   3.6655   8.6084  -0.8163   3.2440  -2.1014   0.00    0.0
2023/11/09 06:04:16.000   23.106237220   72.533781109     8.3164   5  16   3.4153   3.6657   8.6096  -0.8168   3.2444  -2.1021   0.00    0.0
2023/11/09 06:04:17.000   23.106251730   72.533785446     7.8745   5  16   3.4152   3.6659   8.6107  -0.8174   3.2448  -2.1028   0.00    0.0
2023/11/09 06:04:18.000   23.106271522   72.533870270    24.9728   5  17   3.3962   3.2310   7.6980  -0.2196   1.9607  -1.7438   0.00    0.0
2023/11/09 06:04:19.000   23.106306431   72.533801423     6.4305   5  16   3.4150   3.6662   8.6130  -0.8186   3.2457  -2.1043   0.00    0.0
2023/11/09 06:04:20.000   23.106321324   72.533808105     6.5777   5  16   3.4149   3.6663   8.6142  -0.8192   3.2461  -2.1050   0.00    0.0
2023/11/09 06:04:21.000   23.106346113   72.533814208     6.9225   5  16   3.4148   3.6665   8.6153  -0.8198   3.2466  -2.1057   0.00    0.0
2023/11/09 06:04:22.000   23.106346485   72.533879644    22.0647   5  17   3.3957   3.2313   7.7019  -0.2233   1.9618  -1.7458   0.00    0.0
2023/11/09 06:04:23.000   23.106366413   72.533833040    11.8038   5  17   3.3956   3.2314   7.7028  -0.2242   1.9620  -1.7463   0.00    0.0
2023/11/09 06:04:24.000   23.106382853   72.533828199    10.3356   5  17   3.3954   3.2315   7.7038  -0.2251   1.9623  -1.7468   0.00    0.0
2023/11/09 06:04:25.000   23.106396377   72.533834360     8.8471   5  17   3.3953   3.2316   7.7047  -0.2260   1.9625  -1.7473   0.00    0.0
2023/11/09 06:04:26.000   23.106408273   72.533838849     9.0443   5  17   3.3952   3.2317   7.7057  -0.2269   1.9628  -1.7478   0.00    0.0
2023/11/09 06:04:27.000   23.106436516   72.533843168     9.3640   5  17   3.3951   3.2318   7.7067  -0.2278   1.9630  -1.7483   0.00    0.0
2023/11/09 06:04:28.000   23.106456899   72.533841660     9.0550   5  17   3.3949   3.2318   7.7076  -0.2287   1.9633  -1.7488   0.00    0.0
2023/11/09 06:04:29.000   23.106478835   72.533846867     8.5815   5  17   3.3948   3.2319   7.7086  -0.2296   1.9636  -1.7493   0.00    0.0
2023/11/09 06:04:30.000   23.106511801   72.533863330     9.1267   5  17   3.3947   3.2320   7.7095  -0.2305   1.9638  -1.7498   0.00    0.0
2023/11/09 06:04:31.000   23.106561003   72.533873002     8.8626   5  17   3.3946   3.2321   7.7105  -0.2314   1.9641  -1.7503   0.00    0.0
2023/11/09 06:04:32.000   23.106610523   72.533891604     9.2466   5  17   3.3944   3.2322   7.7115  -0.2323   1.9643  -1.7508   0.00    0.0
2023/11/09 06:04:33.000   23.106671076   72.533908535     8.7372   5  17   3.3943   3.2323   7.7124  -0.2332   1.9646  -1.7513   0.00    0.0
2023/11/09 06:04:34.000   23.106746168   72.533931876     7.3993   5  17   3.3942   3.2323   7.7134  -0.2341   1.9648  -1.7519   0.00    0.0
2023/11/09 06:04:35.000   23.106796581   72.533952085     7.7031   5  17   3.3940   3.2324   7.7143  -0.2350   1.9651  -1.7524   0.00    0.0
2023/11/09 06:04:36.000   23.106867233   72.533974650     7.5961   5  17   3.3939   3.2325   7.7153  -0.2358   1.9653  -1.7529   0.00    0.0
2023/11/09 06:04:37.000   23.106947906   72.533991703     9.2615   5  17   3.3938   3.2326   7.7163  -0.2367   1.9656  -1.7534   0.00    0.0
2023/11/09 06:04:38.000   23.107036730   72.534017223     7.7222   5  17   3.3937   3.2327   7.7172  -0.2376   1.9658  -1.7539   0.00    0.0
2023/11/09 06:04:39.000   23.107116583   72.534038864     8.6773   5  17   3.3935   3.2328   7.7182  -0.2385   1.9661  -1.7544   0.00    0.0
2023/11/09 06:04:40.000   23.107213344   72.534067997     6.9968   5  17   3.3934   3.2328   7.7191  -0.2393   1.9663  -1.7549   0.00    0.0
2023/11/09 06:04:41.000   23.107300170   72.534086678     6.8550   5  17   3.3933   3.2329   7.7201  -0.2402   1.9666  -1.7554   0.00    0.0
2023/11/09 06:04:42.000   23.107410075   72.534124308     8.3095   5  17   3.3932   3.2330   7.7211  -0.2411   1.9668  -1.7560   0.00    0.0
2023/11/09 06:04:43.000   23.107503956   72.534152975     7.5686   5  17   3.3930   3.2331   7.7220  -0.2419   1.9671  -1.7565   0.00    0.0
2023/11/09 06:04:44.000   23.107614845   72.534185158     9.8033   5  17   3.3929   3.2332   7.7230  -0.2428   1.9673  -1.7570   0.00    0.0
2023/11/09 06:04:45.000   23.107730090   72.534217096     6.8454   5  17   3.3928   3.2333   7.7239  -0.2437   1.9676  -1.7575   0.00    0.0
2023/11/09 06:04:46.000   23.107813462   72.534221308    17.2609   5  17   3.3927   3.2333   7.7249  -0.2445   1.9678  -1.7580   0.00    0.0
2023/11/09 06:04:47.000   23.107925925   72.534253920    15.8070   5  17   3.3925   3.2334   7.7259  -0.2454   1.9680  -1.7585   0.00    0.0
2023/11/09 06:04:48.000   23.108056775   72.534324465     7.0767   5  16   3.4930   3.3336   7.8738   0.7837   1.6268  -2.0868   0.00    0.0
2023/11/09 06:04:49.000   23.108185396   72.534370886     8.4270   5  16   3.4928   3.3337   7.8748   0.7833   1.6269  -2.0872   0.00    0.0
2023/11/09 06:04:50.000   23.108291391   72.534401580    12.4373   5  16   3.4926   3.3338   7.8759   0.7829   1.6271  -2.0877   0.00    0.0
2023/11/09 06:04:51.000   23.108412359   72.534437147    10.6116   5  17   3.3920   3.2337   7.7297  -0.2488   1.9690  -1.7606   0.00    0.0
2023/11/09 06:04:52.000   23.108540367   72.534471273    10.6618   5  17   3.3919   3.2338   7.7307  -0.2496   1.9693  -1.7612   0.00    0.0
2023/11/09 06:04:53.000   23.108669799   72.534510258     8.5392   5  17   3.3918   3.2339   7.7316  -0.2504   1.9695  -1.7617   0.00    0.0
2023/11/09 06:04:54.000   23.108807504   72.534543306    11.1229   5  17   3.3917   3.2340   7.7326  -0.2513   1.9698  -1.7622   0.00    0.0
2023/11/09 06:04:55.000   23.108927813   72.534581231     9.3687   5  17   3.3915   3.2341   7.7335  -0.2521   1.9700  -1.7627   0.00    0.0
2023/11/09 06:04:56.000   23.109061956   72.534622488     9.0805   5  17   3.3914   3.2342   7.7345  -0.2529   1.9702  -1.7632   0.00    0.0
2023/11/09 06:04:57.000   23.109188237   72.534653315     8.8812   5  17   3.3913   3.2342   7.7355  -0.2538   1.9705  -1.7638   0.00    0.0
2023/11/09 06:04:58.000   23.109317211   72.534692658     8.0382   5  17   3.3912   3.2343   7.7364  -0.2546   1.9707  -1.7643   0.00    0.0
2023/11/09 06:04:59.000   23.109444012   72.534729969     8.6608   5  17   3.3910   3.2344   7.7374  -0.2554   1.9710  -1.7648   0.00    0.0
2023/11/09 06:05:00.000   23.109572490   72.534772424     9.0515   5  17   3.3909   3.2345   7.7383  -0.2562   1.9712  -1.7653   0.00    0.0
2023/11/09 06:05:01.000   23.109693398   72.534807555     7.6810   5  17   3.3908   3.2346   7.7393  -0.2571   1.9715  -1.7658   0.00    0.0
2023/11/09 06:05:02.000   23.109828328   72.534840683     7.5274   5  17   3.3907   3.2346   7.7403  -0.2579   1.9717  -1.7664   0.00    0.0
2023/11/09 06:05:03.000   23.109944742   72.534878808     7.3223   5  17   3.3905   3.2347   7.7412  -0.2587   1.9720  -1.7669   0.00    0.0
2023/11/09 06:05:04.000   23.110078252   72.534919084     7.0605   5  17   3.3904   3.2348   7.7422  -0.2595   1.9722  -1.7674   0.00    0.0
2023/11/09 06:05:05.000   23.110200095   72.534952609     7.3485   5  17   3.3903   3.2349   7.7431  -0.2603   1.9724  -1.7679   0.00    0.0
2023/11/09 06:05:06.000   23.110328679   72.534987330     6.7256   5  17   3.3902   3.2350   7.7441  -0.2611   1.9727  -1.7684   0.00    0.0
2023/11/09 06:05:07.000   23.110457560   72.535022793     7.0075   5  17   3.3900   3.2351   7.7451  -0.2619   1.9729  -1.7690   0.00    0.0
2023/11/09 06:05:08.000   23.110591537   72.535057922     7.1300   5  17   3.3899   3.2351   7.7460  -0.2627   1.9732  -1.7695   0.00    0.0
2023/11/09 06:05:09.000   23.110722836   72.535100658     7.0940   5  17   3.3898   3.2352   7.7470  -0.2635   1.9734  -1.7700   0.00    0.0
2023/11/09 06:05:10.000   23.110840724   72.535135509     7.2196   5  17   3.3897   3.2353   7.7480  -0.2643   1.9736  -1.7705   0.00    0.0
2023/11/09 06:05:11.000   23.110968747   72.535173023     8.4346   5  17   3.3895   3.2354   7.7489  -0.2651   1.9739  -1.7711   0.00    0.0
2023/11/09 06:05:12.000   23.111088248   72.535211878     7.5274   5  17   3.3894   3.2355   7.7499  -0.2659   1.9741  -1.7716   0.00    0.0
2023/11/09 06:05:13.000   23.111212196   72.535248853     7.4206   5  17   3.3893   3.2356   7.7508  -0.2666   1.9744  -1.7721   0.00    0.0
2023/11/09 06:05:14.000   23.111344791   72.535290680     8.4836   5  17   3.3892   3.2356   7.7518  -0.2674   1.9746  -1.7726   0.00    0.0
2023/11/09 06:05:15.000   23.111472072   72.535318144     7.9313   5  17   3.3890   3.2357   7.7528  -0.2682   1.9749  -1.7731   0.00    0.0
2023/11/09 06:05:16.000   23.111600805   72.535357550     7.4317   5  17   3.3889   3.2358   7.7537  -0.2690   1.9751  -1.7736   0.00    0.0
2023/11/09 06:05:17.000   23.111729642   72.535398213     7.4786   5  17   3.3888   3.2359   7.7547  -0.2698   1.9753  -1.7742   0.00    0.0
2023/11/09 06:05:18.000   23.111855094   72.535434087     7.5137   5  17   3.3887   3.2360   7.7557  -0.2705   1.9756  -1.7747   0.00    0.0
2023/11/09 06:05:19.000   23.111989529   72.535480480     6.8417   5  17   3.3886   3.2360   7.7566  -0.2713   1.9758  -1.7752   0.00    0.0
2023/11/09 06:05:20.000   23.112095758   72.535486618    13.2927   5  17   3.3884   3.2361   7.7576  -0.2721   1.9761  -1.7757   0.00    0.0
2023/11/09 06:05:21.000   23.112227604   72.535550919     7.2903   5  17   3.3883   3.2362   7.7586  -0.2728   1.9763  -1.7762   0.00    0.0
2023/11/09 06:05:22.000   23.112371842   72.535592971     6.9885   5  17   3.3882   3.2363   7.7595  -0.2736   1.9765  -1.7768   0.00    0.0
2023/11/09 06:05:23.000   23.112507859   72.535615689     8.4490   5  15   3.8137   3.5269   8.4896  -1.0840   2.4881  -3.0304   0.00    0.0
2023/11/09 06:05:24.000   23.112633346   72.535650250     7.1844   5  15   3.8136   3.5271   8.4905  -1.0844   2.4882  -3.0306   0.00    0.0
2023/11/09 06:05:25.000   23.112754627   72.535682545     7.1241   5  15   3.8134   3.5272   8.4914  -1.0847   2.4884  -3.0308   0.00    0.0
2023/11/09 06:05:26.000   23.112894776   72.535727302     4.9230   5  16   3.6647   3.4720   8.2544  -1.3538   2.7266  -2.6615   0.00    0.0
2023/11/09 06:05:27.000   23.113002934   72.535754747     8.3517   5  16   3.6646   3.4721   8.2552  -1.3540   2.7268  -2.6618   0.00    0.0
2023/11/09 06:05:28.000   23.113134719   72.535795323     6.8953   5  16   3.6645   3.4722   8.2560  -1.3542   2.7270  -2.6621   0.00    0.0
2023/11/09 06:05:29.000   23.113265281   72.535831072     6.0758   5  16   3.6644   3.4723   8.2569  -1.3544   2.7271  -2.6624   0.00    0.0
2023/11/09 06:05:30.000   23.113381669   72.535873722     6.5966   5  16   3.6642   3.4724   8.2577  -1.3546   2.7273  -2.6627   0.00    0.0
2023/11/09 06:05:31.000   23.113509480   72.535911868     5.7763   5  16   3.6641   3.4725   8.2586  -1.3548   2.7275  -2.6630   0.00    0.0
2023/11/09 06:05:32.000   23.113634823   72.535942086     4.7039   5  16   3.6640   3.4726   8.2594  -1.3550   2.7277  -2.6633   0.00    0.0
2023/11/09 06:05:33.000   23.113753300   72.535976628     5.9203   5  16   3.6639   3.4728   8.2602  -1.3552   2.7278  -2.6636   0.00    0.0
2023/11/09 06:05:34.000   23.113863266   72.536005900     8.9378   5  16   3.6638   3.4729   8.2611  -1.3554   2.7280  -2.6639   0.00    0.0
2023/11/09 06:05:35.000   23.114001411   72.536051017     4.7174   5  16   3.6637   3.4730   8.2619  -1.3556   2.7282  -2.6642   0.00    0.0
2023/11/09 06:05:36.000   23.114127200   72.536081784     4.5505   5  16   3.6636   3.4731   8.2628  -1.3558   2.7283  -2.6645   0.00    0.0
2023/11/09 06:05:37.000   23.114249962   72.536129023     6.5702   5  17   3.3863   3.2375   7.7740  -0.2848   1.9801  -1.7845   0.00    0.0
2023/11/09 06:05:38.000   23.114378013   72.536185194     1.6724   5  17   3.3862   3.2376   7.7750  -0.2855   1.9804  -1.7851   0.00    0.0
2023/11/09 06:05:39.000   23.114490756   72.536201044     7.6539   5  17   3.3861   3.2377   7.7760  -0.2862   1.9806  -1.7856   0.00    0.0
2023/11/09 06:05:40.000   23.114612662   72.536239621     7.0053   5  17   3.3860   3.2378   7.7769  -0.2869   1.9809  -1.7861   0.00    0.0
2023/11/09 06:05:41.000   23.114742631   72.536271365     6.5352   5  17   3.3859   3.2379   7.7779  -0.2877   1.9811  -1.7866   0.00    0.0
2023/11/09 06:05:42.000   23.114872043   72.536317309     6.5602   5  17   3.3857   3.2379   7.7789  -0.2884   1.9813  -1.7871   0.00    0.0
2023/11/09 06:05:43.000   23.115004542   72.536360335     4.7571   5  17   3.3856   3.2380   7.7798  -0.2891   1.9816  -1.7877   0.00    0.0
2023/11/09 06:05:44.000   23.115122696   72.536388698     6.2817   5  17   3.3855   3.2381   7.7808  -0.2898   1.9818  -1.7882   0.00    0.0
2023/11/09 06:05:45.000   23.115227632   72.536396772    13.3849   5  17   3.3854   3.2382   7.7818  -0.2905   1.9821  -1.7887   0.00    0.0
2023/11/09 06:05:46.000   23.115369233   72.536454268     9.4315   5  16   3.5137   3.4544   8.1976   1.0234   0.9125  -2.3717   0.00    0.0
2023/11/09 06:05:47.000   23.115496411   72.536491555     7.7082   5  17   3.3851   3.2384   7.7837  -0.2920   1.9825  -1.7897   0.00    0.0
2023/11/09 06:05:48.000   23.115624785   72.536531624     6.3811   5  17   3.3850   3.2384   7.7847  -0.2927   1.9828  -1.7902   0.00    0.0
2023/11/09 06:05:49.000   23.115742344   72.536566906     7.6100   5  16   3.5134   3.4545   8.2010   1.0227   0.9134  -2.3733   0.00    0.0
2023/11/09 06:05:50.000   23.115884195   72.536601434     6.7800   5  17   3.3848   3.2386   7.7866  -0.2941   1.9832  -1.7913   0.00    0.0
2023/11/09 06:05:51.000   23.116008961   72.536643552     7.7510   5  17   3.3846   3.2387   7.7876  -0.2948   1.9835  -1.7918   0.00    0.0
2023/11/09 06:05:52.000   23.116133109   72.536678404     7.0682   5  17   3.3845   3.2388   7.7885  -0.2955   1.9837  -1.7923   0.00    0.0
2023/11/09 06:05:53.000   23.116258502   72.536722300     7.4524   5  17   3.3844   3.2389   7.7895  -0.2962   1.9839  -1.7928   0.00    0.0
2023/11/09 06:05:54.000   23.116388874   72.536756168     6.4836   5  17   3.3843   3.2389   7.7905  -0.2969   1.9842  -1.7933   0.00    0.0
2023/11/09 06:05:55.000   23.116521538   72.536790919     7.1932   5  17   3.3842   3.2390   7.7915  -0.2976   1.9844  -1.7939   0.00    0.0
2023/11/09 06:05:56.000   23.116645071   72.536821965     8.3588   5  17   3.3840   3.2391   7.7924  -0.2983   1.9847  -1.7944   0.00    0.0
2023/11/09 06:05:57.000   23.116790725   72.536866221     7.8667   5  17   3.3839   3.2392   7.7934  -0.2990   1.9849  -1.7949   0.00    0.0
2023/11/09 06:05:58.000   23.116896029   72.536906730     6.9299   5  17   3.3838   3.2393   7.7944  -0.2997   1.9851  -1.7954   0.00    0.0
2023/11/09 06:05:59.000   23.117025181   72.536949455     5.5930   5  17   3.3837   3.2394   7.7953  -0.3003   1.9854  -1.7959   0.00    0.0
2023/11/09 06:06:00.000   23.117151594   72.536978730     6.2427   5  17   3.3836   3.2394   7.7963  -0.3010   1.9856  -1.7964   0.00    0.0
2023/11/09 06:06:01.000   23.117274832   72.537011417     6.0531   5  17   3.3834   3.2395   7.7973  -0.3017   1.9858  -1.7970   0.00    0.0
2023/11/09 06:06:02.000   23.117400175   72.537055167     5.2928   5  17   3.3833   3.2396   7.7983  -0.3024   1.9861  -1.7975   0.00    0.0
2023/11/09 06:06:03.000   23.117542733   72.537090023     4.3112   5  17   3.3832   3.2397   7.7992  -0.3031   1.9863  -1.7980   0.00    0.0
2023/11/09 06:06:04.000   23.117655739   72.537120553     5.9060   5  17   3.3831   3.2398   7.8002  -0.3038   1.9865  -1.7985   0.00    0.0
2023/11/09 06:06:05.000   23.117793653   72.537164776     7.0244   5  17   3.3829   3.2399   7.8012  -0.3044   1.9868  -1.7990   0.00    0.0
2023/11/09 06:06:06.000   23.117923991   72.537206877     5.2697   5  17   3.3828   3.2399   7.8021  -0.3051   1.9870  -1.7996   0.00    0.0
2023/11/09 06:06:07.000   23.118043453   72.537239877     6.9351   5  17   3.3827   3.2400   7.8031  -0.3058   1.9872  -1.8001   0.00    0.0
2023/11/09 06:06:08.000   23.118169263   72.537282194     5.8766   5  17   3.3826   3.2401   7.8041  -0.3065   1.9875  -1.8006   0.00    0.0
