% pos mode  : Single
% elev mask : 5.0 deg
% ionos opt : Broadcast
% tropo opt : Saastamoinen
% ephemeris : Broadcast
% navi sys  : GPS Galileo QZSS BDS NavIC
%
% (lat/lon/height=WGS84/ellipsoidal,Q=1:fix,2:float,3:sbas,4:dgps,5:single,6:ppp,ns=# of satellites)
%  GPST                  latitude(deg) longitude(deg)  height(m)   Q  ns   sdn(m)   sde(m)   sdu(m)  sdne(m)  sdeu(m)  sdun(m) age(s)  ratio
2023/11/29 06:31:31.000   12.348591236   76.660524588   636.1681   5  31   3.4174   3.5368   7.2297   0.6829   2.0500  -2.3665   0.00    0.0
2023/11/29 06:31:32.000   12.348591113   76.660524454   636.1197   5  31   3.4175   3.5369   7.2296   0.6826   2.0504  -2.3667   0.00    0.0
2023/11/29 06:31:33.000   12.348594979   76.660531545   636.4396   5  31   3.4176   3.5370   7.2295   0.6823   2.0508  -2.3668   0.00    0.0
2023/11/29 06:31:34.000   12.348593138   76.660524999   634.8154   5  31   3.4177   3.5371   7.2295   0.6820   2.0513  -2.3670   0.00    0.0
2023/11/29 06:31:35.000   12.348594154   76.660529917   635.9510   5  31   3.4177   3.5373   7.2294   0.6817   2.0517  -2.3672   0.00    0.0
2023/11/29 06:31:36.000   12.348588195   76.660531643   637.1288   5  31   3.4178   3.5374   7.2293   0.6813   2.0521  -2.3674   0.00    0.0
2023/11/29 06:31:37.000   12.348587244   76.660525038   635.3172   5  31   3.4179   3.5375   7.2293   0.6810   2.0525  -2.3675   0.00    0.0
2023/11/29 06:31:38.000   12.348582953   76.660525245   636.4359   5  31   3.4180   3.5376   7.2292   0.6807   2.0529  -2.3677   0.00    0.0
2023/11/29 06:31:39.000   12.348584349   76.660531536   636.7552   5  31   3.4180   3.5378   7.2292   0.6804   2.0533  -2.3679   0.00    0.0
2023/11/29 06:31:40.000   12.348581696   76.660525510   634.5981   5  31   3.4181   3.5379   7.2291   0.6800   2.0538  -2.3681   0.00    0.0
2023/11/29 06:31:41.000   12.348584435   76.660532704   635.8105   5  31   3.4182   3.5380   7.2290   0.6797   2.0542  -2.3682   0.00    0.0
2023/11/29 06:31:42.000   12.348575834   76.660533640   637.4124   5  31   3.4183   3.5381   7.2290   0.6794   2.0546  -2.3684   0.00    0.0
2023/11/29 06:31:43.000   12.348577121   76.660526680   636.9395   5  31   3.4183   3.5383   7.2289   0.6791   2.0550  -2.3686   0.00    0.0
2023/11/29 06:31:44.000   12.348584257   76.660533470   637.1684   5  31   3.4184   3.5384   7.2289   0.6788   2.0554  -2.3687   0.00    0.0
2023/11/29 06:31:45.000   12.348576394   76.660528954   637.0390   5  31   3.4185   3.5385   7.2288   0.6784   2.0558  -2.3689   0.00    0.0
2023/11/29 06:31:46.000   12.348579731   76.660532721   637.8887   5  30   3.5188   3.5412   7.3179   0.7559   2.0189  -2.5617   0.00    0.0
2023/11/29 06:31:47.000   12.348586888   76.660540883   637.2594   5  30   3.5189   3.5413   7.3178   0.7556   2.0193  -2.5619   0.00    0.0
2023/11/29 06:31:48.000   12.348573171   76.660531822   637.5460   5  30   3.5190   3.5414   7.3178   0.7554   2.0197  -2.5621   0.00    0.0
2023/11/29 06:31:49.000   12.348578961   76.660533903   637.5964   5  31   3.4188   3.5390   7.2285   0.6771   2.0575  -2.3696   0.00    0.0
2023/11/29 06:31:50.000   12.348581316   76.660532768   636.5045   5  31   3.4189   3.5392   7.2285   0.6768   2.0579  -2.3698   0.00    0.0
2023/11/29 06:31:51.000   12.348573333   76.660534021   638.9985   5  31   3.4189   3.5393   7.2284   0.6765   2.0583  -2.3699   0.00    0.0
2023/11/29 06:31:52.000   12.348575730   76.660536733   637.8682   5  31   3.4190   3.5394   7.2284   0.6762   2.0587  -2.3701   0.00    0.0
2023/11/29 06:31:53.000   12.348574931   76.660534238   636.4103   5  31   3.4191   3.5395   7.2283   0.6759   2.0591  -2.3703   0.00    0.0
2023/11/29 06:31:54.000   12.348572389   76.660543558   638.8916   5  31   3.4191   3.5397   7.2282   0.6755   2.0596  -2.3704   0.00    0.0
2023/11/29 06:31:55.000   12.348572597   76.660542339   638.8876   5  31   3.4192   3.5398   7.2282   0.6752   2.0600  -2.3706   0.00    0.0
2023/11/29 06:31:56.000   12.348572696   76.660541432   637.8069   5  31   3.4193   3.5399   7.2281   0.6749   2.0604  -2.3708   0.00    0.0
2023/11/29 06:31:57.000   12.348569312   76.660534514   638.6327   5  31   3.4194   3.5401   7.2280   0.6746   2.0608  -2.3709   0.00    0.0
2023/11/29 06:31:58.000   12.348569098   76.660533877   636.5061   5  31   3.4194   3.5402   7.2280   0.6742   2.0612  -2.3711   0.00    0.0
2023/11/29 06:31:59.000   12.348571358   76.660533714   637.0412   5  31   3.4195   3.5403   7.2279   0.6739   2.0616  -2.3713   0.00    0.0
2023/11/29 06:32:00.000   12.348571804   76.660536399   637.7825   5  31   3.4196   3.5404   7.2279   0.6736   2.0620  -2.3714   0.00    0.0
2023/11/29 06:32:01.000   12.348571961   76.660532812   636.8638   5  31   3.4197   3.5406   7.2278   0.6732   2.0625  -2.3716   0.00    0.0
2023/11/29 06:32:02.000   12.348573031   76.660539943   638.3946   5  31   3.4197   3.5407   7.2277   0.6729   2.0629  -2.3718   0.00    0.0
2023/11/29 06:32:03.000   12.348569612   76.660541490   637.7328   5  31   3.4198   3.5408   7.2277   0.6726   2.0633  -2.3719   0.00    0.0
2023/11/29 06:32:04.000   12.348571429   76.660533797   636.2939   5  31   3.4199   3.5409   7.2276   0.6723   2.0637  -2.3721   0.00    0.0
2023/11/29 06:32:05.000   12.348572220   76.660533676   637.1959   5  31   3.4200   3.5411   7.2276   0.6719   2.0641  -2.3722   0.00    0.0
2023/11/29 06:32:06.000   12.348567009   76.660528643   638.0429   5  31   3.4200   3.5412   7.2275   0.6716   2.0645  -2.3724   0.00    0.0
2023/11/29 06:32:07.000   12.348566521   76.660538227   638.9601   5  31   3.4201   3.5413   7.2274   0.6713   2.0649  -2.3726   0.00    0.0
2023/11/29 06:32:08.000   12.348574880   76.660526497   636.4499   5  31   3.4202   3.5415   7.2274   0.6710   2.0653  -2.3727   0.00    0.0
2023/11/29 06:32:09.000   12.348577217   76.660528537   635.3479   5  31   3.4202   3.5416   7.2273   0.6706   2.0658  -2.3729   0.00    0.0
2023/11/29 06:32:10.000   12.348576059   76.660525027   634.2499   5  31   3.4203   3.5417   7.2272   0.6703   2.0662  -2.3731   0.00    0.0
2023/11/29 06:32:11.000   12.348575213   76.660531631   635.5743   5  31   3.4204   3.5418   7.2272   0.6700   2.0666  -2.3732   0.00    0.0
2023/11/29 06:32:12.000   12.348581596   76.660528724   634.5516   5  31   3.4205   3.5420   7.2271   0.6696   2.0670  -2.3734   0.00    0.0
2023/11/29 06:32:13.000   12.348579853   76.660524263   635.2656   5  31   3.4205   3.5421   7.2271   0.6693   2.0674  -2.3736   0.00    0.0
2023/11/29 06:32:14.000   12.348578501   76.660524299   634.7576   5  31   3.4206   3.5422   7.2270   0.6690   2.0678  -2.3737   0.00    0.0
2023/11/29 06:32:15.000   12.348575443   76.660530000   636.4940   5  31   3.4207   3.5424   7.2269   0.6687   2.0682  -2.3739   0.00    0.0
2023/11/29 06:32:16.000   12.348576064   76.660531326   636.9164   5  31   3.4208   3.5425   7.2269   0.6683   2.0687  -2.3740   0.00    0.0
2023/11/29 06:32:17.000   12.348586210   76.660532096   635.3857   5  31   3.4208   3.5426   7.2268   0.6680   2.0691  -2.3742   0.00    0.0
2023/11/29 06:32:18.000   12.348581654   76.660542032   638.3394   5  31   3.4209   3.5427   7.2267   0.6677   2.0695  -2.3744   0.00    0.0
2023/11/29 06:32:19.000   12.348572057   76.660534135   636.6868   5  31   3.4210   3.5429   7.2267   0.6673   2.0699  -2.3745   0.00    0.0
2023/11/29 06:32:20.000   12.348579872   76.660534102   636.6503   5  31   3.4210   3.5430   7.2266   0.6670   2.0703  -2.3747   0.00    0.0
2023/11/29 06:32:21.000   12.348577454   76.660538626   637.5828   5  31   3.4211   3.5431   7.2266   0.6667   2.0707  -2.3748   0.00    0.0
2023/11/29 06:32:22.000   12.348571788   76.660541360   639.3946   5  31   3.4212   3.5433   7.2265   0.6663   2.0711  -2.3750   0.00    0.0
2023/11/29 06:32:23.000   12.348575940   76.660535075   637.3126   5  31   3.4213   3.5434   7.2264   0.6660   2.0715  -2.3752   0.00    0.0
2023/11/29 06:32:24.000   12.348577766   76.660540138   638.0797   5  31   3.4213   3.5435   7.2264   0.6657   2.0720  -2.3753   0.00    0.0
2023/11/29 06:32:25.000   12.348574672   76.660531586   638.3420   5  31   3.4214   3.5436   7.2263   0.6653   2.0724  -2.3755   0.00    0.0
2023/11/29 06:32:26.000   12.348583644   76.660531993   637.0345   5  31   3.4215   3.5438   7.2262   0.6650   2.0728  -2.3756   0.00    0.0
2023/11/29 06:32:27.000   12.348580448   76.660533789   636.6172   5  31   3.4215   3.5439   7.2262   0.6647   2.0732  -2.3758   0.00    0.0
2023/11/29 06:32:28.000   12.348582236   76.660529711   636.9223   5  31   3.4216   3.5440   7.2261   0.6643   2.0736  -2.3760   0.00    0.0
2023/11/29 06:32:29.000   12.348587374   76.660534830   636.3086   5  31   3.4217   3.5442   7.2261   0.6640   2.0740  -2.3761   0.00    0.0
2023/11/29 06:32:30.000   12.348578127   76.660537026   639.5339   5  31   3.4218   3.5443   7.2260   0.6637   2.0744  -2.3763   0.00    0.0
2023/11/29 06:32:31.000   12.348580691   76.660532052   638.1853   5  31   3.4218   3.5444   7.2259   0.6633   2.0748  -2.3764   0.00    0.0
2023/11/29 06:32:32.000   12.348581039   76.660527637   635.8024   5  31   3.4219   3.5445   7.2259   0.6630   2.0753  -2.3766   0.00    0.0
2023/11/29 06:32:33.000   12.348580958   76.660541247   638.9758   5  31   3.4220   3.5447   7.2258   0.6627   2.0757  -2.3768   0.00    0.0
2023/11/29 06:32:34.000   12.348587379   76.660543450   639.6230   5  31   3.4220   3.5448   7.2257   0.6623   2.0761  -2.3769   0.00    0.0
2023/11/29 06:32:35.000   12.348585298   76.660537790   637.8215   5  31   3.4221   3.5449   7.2257   0.6620   2.0765  -2.3771   0.00    0.0
2023/11/29 06:32:36.000   12.348587514   76.660527749   635.4249   5  31   3.4222   3.5451   7.2256   0.6617   2.0769  -2.3772   0.00    0.0
2023/11/29 06:32:37.000   12.348584034   76.660532313   637.1956   5  31   3.4223   3.5452   7.2255   0.6613   2.0773  -2.3774   0.00    0.0
2023/11/29 06:32:38.000   12.348586282   76.660528602   636.3920   5  31   3.4223   3.5453   7.2255   0.6610   2.0777  -2.3775   0.00    0.0
2023/11/29 06:32:39.000   12.348585571   76.660545725   640.2151   5  31   3.4224   3.5454   7.2254   0.6607   2.0781  -2.3777   0.00    0.0
2023/11/29 06:32:40.000   12.348586207   76.660546128   639.6150   5  31   3.4225   3.5456   7.2254   0.6603   2.0785  -2.3779   0.00    0.0
2023/11/29 06:32:41.000   12.348584082   76.660548022   640.7875   5  31   3.4225   3.5457   7.2253   0.6600   2.0790  -2.3780   0.00    0.0
2023/11/29 06:32:42.000   12.348585374   76.660538232   639.2062   5  31   3.4226   3.5458   7.2252   0.6597   2.0794  -2.3782   0.00    0.0
2023/11/29 06:32:43.000   12.348586928   76.660544542   639.3160   5  31   3.4227   3.5460   7.2252   0.6593   2.0798  -2.3783   0.00    0.0
2023/11/29 06:32:44.000   12.348583405   76.660542286   639.8199   5  31   3.4228   3.5461   7.2251   0.6590   2.0802  -2.3785   0.00    0.0
2023/11/29 06:32:45.000   12.348589097   76.660539933   638.9573   5  31   3.4228   3.5462   7.2250   0.6586   2.0806  -2.3786   0.00    0.0
2023/11/29 06:32:46.000   12.348583522   76.660537080   638.9925   5  31   3.4229   3.5463   7.2250   0.6583   2.0810  -2.3788   0.00    0.0
2023/11/29 06:32:47.000   12.348584717   76.660539800   638.8602   5  31   3.4230   3.5465   7.2249   0.6580   2.0814  -2.3789   0.00    0.0
2023/11/29 06:32:48.000   12.348588460   76.660542924   638.3207   5  31   3.4230   3.5466   7.2249   0.6576   2.0818  -2.3791   0.00    0.0
2023/11/29 06:32:49.000   12.348578032   76.660535048   638.4728   5  31   3.4231   3.5467   7.2248   0.6573   2.0822  -2.3792   0.00    0.0
2023/11/29 06:32:50.000   12.348584154   76.660539235   638.2545   5  31   3.4232   3.5469   7.2247   0.6570   2.0827  -2.3794   0.00    0.0
2023/11/29 06:32:51.000   12.348586863   76.660539775   639.1369   5  31   3.4233   3.5470   7.2247   0.6566   2.0831  -2.3795   0.00    0.0
2023/11/29 06:32:52.000   12.348574291   76.660540147   640.2092   5  31   3.4233   3.5471   7.2246   0.6563   2.0835  -2.3797   0.00    0.0
2023/11/29 06:32:53.000   12.348575964   76.660547657   641.2459   5  31   3.4234   3.5473   7.2245   0.6559   2.0839  -2.3798   0.00    0.0
2023/11/29 06:32:54.000   12.348580572   76.660536658   638.9087   5  31   3.4235   3.5474   7.2245   0.6556   2.0843  -2.3800   0.00    0.0
2023/11/29 06:32:55.000   12.348576333   76.660538504   638.8386   5  31   3.4235   3.5475   7.2244   0.6553   2.0847  -2.3802   0.00    0.0
2023/11/29 06:32:56.000   12.348582229   76.660547415   638.4941   5  31   3.4236   3.5476   7.2243   0.6549   2.0851  -2.3803   0.00    0.0
2023/11/29 06:32:57.000   12.348580553   76.660532824   637.7584   5  31   3.4237   3.5478   7.2243   0.6546   2.0855  -2.3805   0.00    0.0
2023/11/29 06:32:58.000   12.348579330   76.660532790   637.2227   5  31   3.4237   3.5479   7.2242   0.6542   2.0859  -2.3806   0.00    0.0
2023/11/29 06:32:59.000   12.348571643   76.660538103   639.4487   5  31   3.4238   3.5480   7.2242   0.6539   2.0864  -2.3808   0.00    0.0
2023/11/29 06:33:00.000   12.348572468   76.660532665   638.2316   5  31   3.4239   3.5482   7.2241   0.6536   2.0868  -2.3809   0.00    0.0
2023/11/29 06:33:01.000   12.348574470   76.660532493   636.8831   5  31   3.4240   3.5483   7.2240   0.6532   2.0872  -2.3811   0.00    0.0
2023/11/29 06:33:02.000   12.348577588   76.660526565   636.0568   5  31   3.4240   3.5484   7.2240   0.6529   2.0876  -2.3812   0.00    0.0
2023/11/29 06:33:03.000   12.348577336   76.660533120   638.1385   5  31   3.4241   3.5485   7.2239   0.6525   2.0880  -2.3814   0.00    0.0
2023/11/29 06:33:04.000   12.348577729   76.660538587   638.1445   5  31   3.4242   3.5487   7.2238   0.6522   2.0884  -2.3815   0.00    0.0
2023/11/29 06:33:05.000   12.348576763   76.660529325   637.4203   5  31   3.4242   3.5488   7.2238   0.6518   2.0888  -2.3817   0.00    0.0
2023/11/29 06:33:06.000   12.348578484   76.660540881   639.4693   5  31   3.4243   3.5489   7.2237   0.6515   2.0892  -2.3818   0.00    0.0
2023/11/29 06:33:07.000   12.348578204   76.660548056   641.1207   5  31   3.4244   3.5491   7.2236   0.6512   2.0896  -2.3820   0.00    0.0
2023/11/29 06:33:08.000   12.348579171   76.660536818   637.8828   5  31   3.4244   3.5492   7.2236   0.6508   2.0900  -2.3821   0.00    0.0
2023/11/29 06:33:09.000   12.348577414   76.660537384   637.2284   5  31   3.4245   3.5493   7.2235   0.6505   2.0905  -2.3823   0.00    0.0
2023/11/29 06:33:10.000   12.348586024   76.660541030   637.8302   5  31   3.4246   3.5495   7.2235   0.6501   2.0909  -2.3824   0.00    0.0
2023/11/29 06:33:11.000   12.348579536   76.660540422   639.5116   5  31   3.4246   3.5496   7.2234   0.6498   2.0913  -2.3825   0.00    0.0
2023/11/29 06:33:12.000   12.348578076   76.660547842   639.8511   5  31   3.4247   3.5497   7.2233   0.6494   2.0917  -2.3827   0.00    0.0
2023/11/29 06:33:13.000   12.348575323   76.660547703   640.1307   5  31   3.4248   3.5498   7.2233   0.6491   2.0921  -2.3828   0.00    0.0
2023/11/29 06:33:14.000   12.348579038   76.660544364   639.4823   5  31   3.4249   3.5500   7.2232   0.6487   2.0925  -2.3830   0.00    0.0
2023/11/29 06:33:15.000   12.348586447   76.660532642   637.8749   5  31   3.4249   3.5501   7.2231   0.6484   2.0929  -2.3831   0.00    0.0
2023/11/29 06:33:16.000   12.348574808   76.660547962   641.2198   5  31   3.4250   3.5502   7.2231   0.6481   2.0933  -2.3833   0.00    0.0
2023/11/29 06:33:17.000   12.348576056   76.660542612   640.2795   5  31   3.4251   3.5504   7.2230   0.6477   2.0937  -2.3834   0.00    0.0
2023/11/29 06:33:18.000   12.348580557   76.660537666   637.8291   5  31   3.4251   3.5505   7.2229   0.6474   2.0941  -2.3836   0.00    0.0
2023/11/29 06:33:19.000   12.348581561   76.660551040   640.8000   5  31   3.4252   3.5506   7.2229   0.6470   2.0946  -2.3837   0.00    0.0
2023/11/29 06:33:20.000   12.348574971   76.660543533   640.0782   5  31   3.4253   3.5508   7.2228   0.6467   2.0950  -2.3839   0.00    0.0
2023/11/29 06:33:21.000   12.348576760   76.660539882   638.8998   5  31   3.4253   3.5509   7.2228   0.6463   2.0954  -2.3840   0.00    0.0
2023/11/29 06:33:22.000   12.348577588   76.660538947   639.0419   5  31   3.4254   3.5510   7.2227   0.6460   2.0958  -2.3842   0.00    0.0
2023/11/29 06:33:23.000   12.348579928   76.660538151   639.4485   5  31   3.4255   3.5512   7.2226   0.6456   2.0962  -2.3843   0.00    0.0
2023/11/29 06:33:24.000   12.348586793   76.660534198   638.8490   5  31   3.4255   3.5513   7.2226   0.6453   2.0966  -2.3844   0.00    0.0
2023/11/29 06:33:25.000   12.348581790   76.660550315   641.5282   5  31   3.4256   3.5514   7.2225   0.6449   2.0970  -2.3846   0.00    0.0
2023/11/29 06:33:26.000   12.348582002   76.660538371   639.4845   5  31   3.4257   3.5515   7.2224   0.6446   2.0974  -2.3847   0.00    0.0
2023/11/29 06:33:27.000   12.348583151   76.660534468   639.4836   5  31   3.4257   3.5517   7.2224   0.6442   2.0978  -2.3849   0.00    0.0
2023/11/29 06:33:28.000   12.348580894   76.660530175   638.2771   5  31   3.4258   3.5518   7.2223   0.6439   2.0982  -2.3850   0.00    0.0
2023/11/29 06:33:29.000   12.348586315   76.660538419   641.1679   5  31   3.4259   3.5519   7.2222   0.6435   2.0986  -2.3852   0.00    0.0
2023/11/29 06:33:30.000   12.348582977   76.660538079   640.8383   5  31   3.4260   3.5521   7.2222   0.6432   2.0991  -2.3853   0.00    0.0
2023/11/29 06:33:31.000   12.348586445   76.660544373   640.3867   5  31   3.4260   3.5522   7.2221   0.6428   2.0995  -2.3854   0.00    0.0
2023/11/29 06:33:32.000   12.348587056   76.660544989   640.4663   5  31   3.4261   3.5523   7.2220   0.6425   2.0999  -2.3856   0.00    0.0
2023/11/29 06:33:33.000   12.348588317   76.660540144   639.0052   5  31   3.4262   3.5525   7.2220   0.6421   2.1003  -2.3857   0.00    0.0
2023/11/29 06:33:34.000   12.348589848   76.660536849   638.6978   5  31   3.4262   3.5526   7.2219   0.6418   2.1007  -2.3859   0.00    0.0
2023/11/29 06:33:35.000   12.348583664   76.660545349   640.7320   5  31   3.4263   3.5527   7.2219   0.6414   2.1011  -2.3860   0.00    0.0
2023/11/29 06:33:36.000   12.348584196   76.660537778   639.1611   5  31   3.4264   3.5529   7.2218   0.6411   2.1015  -2.3862   0.00    0.0
2023/11/29 06:33:37.000   12.348587227   76.660539130   639.6609   5  31   3.4264   3.5530   7.2217   0.6407   2.1019  -2.3863   0.00    0.0
2023/11/29 06:33:38.000   12.348587087   76.660528648   637.7349   5  31   3.4265   3.5531   7.2217   0.6404   2.1023  -2.3864   0.00    0.0
2023/11/29 06:33:39.000   12.348585972   76.660525138   637.0214   5  31   3.4266   3.5532   7.2216   0.6400   2.1027  -2.3866   0.00    0.0
2023/11/29 06:33:40.000   12.348585651   76.660528411   636.7586   5  31   3.4266   3.5534   7.2215   0.6397   2.1031  -2.3867   0.00    0.0
2023/11/29 06:33:41.000   12.348586675   76.660531502   637.5819   5  31   3.4267   3.5535   7.2215   0.6393   2.1036  -2.3869   0.00    0.0
2023/11/29 06:33:42.000   12.348591572   76.660529875   637.2860   5  31   3.4268   3.5536   7.2214   0.6390   2.1040  -2.3870   0.00    0.0
2023/11/29 06:33:43.000   12.348589230   76.660536070   638.3281   5  31   3.4268   3.5538   7.2213   0.6386   2.1044  -2.3871   0.00    0.0
2023/11/29 06:33:44.000   12.348587788   76.660530751   636.9827   5  31   3.4269   3.5539   7.2213   0.6383   2.1048  -2.3873   0.00    0.0
2023/11/29 06:33:45.000   12.348588445   76.660540170   639.4547   5  31   3.4270   3.5540   7.2212   0.6379   2.1052  -2.3874   0.00    0.0
2023/11/29 06:33:46.000   12.348581564   76.660541146   640.4421   5  31   3.4270   3.5542   7.2211   0.6376   2.1056  -2.3876   0.00    0.0
2023/11/29 06:33:47.000   12.348579154   76.660539820   640.4719   5  31   3.4271   3.5543   7.2211   0.6372   2.1060  -2.3877   0.00    0.0
2023/11/29 06:33:48.000   12.348584302   76.660537015   638.0564   5  31   3.4272   3.5544   7.2210   0.6368   2.1064  -2.3878   0.00    0.0
2023/11/29 06:33:49.000   12.348578915   76.660537837   639.8184   5  31   3.4272   3.5546   7.2209   0.6365   2.1068  -2.3880   0.00    0.0
2023/11/29 06:33:50.000   12.348580444   76.660542230   640.6736   5  31   3.4273   3.5547   7.2209   0.6361   2.1072  -2.3881   0.00    0.0
2023/11/29 06:33:51.000   12.348579179   76.660538235   639.9208   5  31   3.4274   3.5548   7.2208   0.6358   2.1076  -2.3882   0.00    0.0
2023/11/29 06:33:52.000   12.348578853   76.660537541   640.8658   5  31   3.4274   3.5549   7.2208   0.6354   2.1080  -2.3884   0.00    0.0
2023/11/29 06:33:53.000   12.348583765   76.660533530   638.9832   5  31   3.4275   3.5551   7.2207   0.6351   2.1084  -2.3885   0.00    0.0
2023/11/29 06:33:54.000   12.348582956   76.660532031   638.4058   5  31   3.4276   3.5552   7.2206   0.6347   2.1089  -2.3887   0.00    0.0
2023/11/29 06:33:55.000   12.348580201   76.660534890   639.4231   5  31   3.4276   3.5553   7.2206   0.6344   2.1093  -2.3888   0.00    0.0
2023/11/29 06:33:56.000   12.348577226   76.660536150   639.2049   5  31   3.4277   3.5555   7.2205   0.6340   2.1097  -2.3889   0.00    0.0
2023/11/29 06:33:57.000   12.348575320   76.660536198   638.3533   5  31   3.4278   3.5556   7.2204   0.6336   2.1101  -2.3891   0.00    0.0
2023/11/29 06:33:58.000   12.348571481   76.660546181   641.2907   5  31   3.4278   3.5557   7.2204   0.6333   2.1105  -2.3892   0.00    0.0
2023/11/29 06:33:59.000   12.348566121   76.660526216   637.7172   5  31   3.4279   3.5559   7.2203   0.6329   2.1109  -2.3893   0.00    0.0
2023/11/29 06:34:00.000   12.348552285   76.660521543   639.3564   5  31   3.4280   3.5560   7.2202   0.6326   2.1113  -2.3895   0.00    0.0
2023/11/29 06:34:01.000   12.348539291   76.660502096   637.3540   5  31   3.4280   3.5561   7.2202   0.6322   2.1117  -2.3896   0.00    0.0
2023/11/29 06:34:02.000   12.348533640   76.660515346   636.2301   5  31   3.4281   3.5563   7.2201   0.6319   2.1121  -2.3897   0.00    0.0
2023/11/29 06:34:03.000   12.348523148   76.660499262   641.5355   5  31   3.4282   3.5564   7.2200   0.6315   2.1125  -2.3899   0.00    0.0
2023/11/29 06:34:04.000   12.348513617   76.660459874   639.7394   5  31   3.4282   3.5565   7.2200   0.6311   2.1129  -2.3900   0.00    0.0
2023/11/29 06:34:05.000   12.348511286   76.660456496   638.4160   5  31   3.4283   3.5567   7.2199   0.6308   2.1133  -2.3901   0.00    0.0
2023/11/29 06:34:06.000   12.348504439   76.660462316   640.6385   5  31   3.4284   3.5568   7.2198   0.6304   2.1137  -2.3903   0.00    0.0
2023/11/29 06:34:07.000   12.348512219   76.660435583   634.8507   5  30   3.4553   3.7612   7.5993  -0.3587   2.7147  -2.5949   0.00    0.0
2023/11/29 06:34:08.000   12.348524778   76.660447540   630.4536   5  29   3.5355   3.6653   7.4577   0.8354   1.7441  -2.6475   0.00    0.0
2023/11/29 06:34:09.000   12.348521964   76.660422306   634.6814   5  31   3.4286   3.5572   7.2196   0.6293   2.1150  -2.3907   0.00    0.0
2023/11/29 06:34:10.000   12.348509623   76.660404847   637.0350   5  31   3.4286   3.5573   7.2196   0.6290   2.1154  -2.3908   0.00    0.0
2023/11/29 06:34:11.000   12.348509515   76.660425940   633.3365   5  31   3.4287   3.5575   7.2195   0.6286   2.1158  -2.3909   0.00    0.0
2023/11/29 06:34:12.000   12.348496999   76.660414983   634.4589   5  31   3.4288   3.5576   7.2195   0.6282   2.1162  -2.3911   0.00    0.0
2023/11/29 06:34:13.000   12.348496922   76.660427427   633.0815   5  31   3.4288   3.5577   7.2194   0.6279   2.1166  -2.3912   0.00    0.0
2023/11/29 06:34:14.000   12.348483752   76.660410874   633.9471   5  31   3.4289   3.5579   7.2193   0.6275   2.1170  -2.3913   0.00    0.0
2023/11/29 06:34:15.000   12.348474832   76.660412124   634.6282   5  31   3.4289   3.5580   7.2193   0.6272   2.1174  -2.3915   0.00    0.0
2023/11/29 06:34:16.000   12.348467985   76.660402907   637.7926   5  31   3.4290   3.5581   7.2192   0.6268   2.1178  -2.3916   0.00    0.0
2023/11/29 06:34:17.000   12.348461724   76.660401576   634.0161   5  31   3.4291   3.5583   7.2191   0.6264   2.1182  -2.3917   0.00    0.0
2023/11/29 06:34:18.000   12.348449387   76.660390055   637.8138   5  31   3.4291   3.5584   7.2191   0.6261   2.1186  -2.3919   0.00    0.0
2023/11/29 06:34:19.000   12.348447709   76.660409889   637.4757   5  31   3.4292   3.5585   7.2190   0.6257   2.1190  -2.3920   0.00    0.0
2023/11/29 06:34:20.000   12.348448405   76.660396669   637.3326   5  31   3.4293   3.5586   7.2189   0.6253   2.1194  -2.3921   0.00    0.0
2023/11/29 06:34:21.000   12.348451811   76.660422943   631.3928   5  30   3.4336   3.6623   7.3517   0.7338   1.8141  -2.4415   0.00    0.0
2023/11/29 06:34:22.000   12.348442643   76.660388099   638.7925   5  31   3.4294   3.5589   7.2188   0.6246   2.1203  -2.3924   0.00    0.0
2023/11/29 06:34:23.000   12.348436305   76.660383651   642.4296   5  31   3.4295   3.5590   7.2187   0.6243   2.1207  -2.3925   0.00    0.0
2023/11/29 06:34:24.000   12.348435313   76.660376618   640.9653   5  31   3.4295   3.5592   7.2187   0.6239   2.1211  -2.3926   0.00    0.0
2023/11/29 06:34:25.000   12.348442121   76.660405748   638.0415   5  31   3.4296   3.5593   7.2186   0.6235   2.1215  -2.3928   0.00    0.0
2023/11/29 06:34:26.000   12.348450140   76.660430801   635.6189   5  30   3.4339   3.6628   7.3513   0.7318   1.8167  -2.4419   0.00    0.0
2023/11/29 06:34:27.000   12.348444984   76.660417549   634.5450   5  30   3.4340   3.6629   7.3512   0.7314   1.8173  -2.4420   0.00    0.0
2023/11/29 06:34:28.000   12.348436418   76.660389405   640.8720   5  31   3.4298   3.5597   7.2184   0.6224   2.1227  -2.3931   0.00    0.0
2023/11/29 06:34:29.000   12.348449296   76.660418294   635.7748   5  30   3.4341   3.6632   7.3511   0.7307   1.8183  -2.4422   0.00    0.0
2023/11/29 06:34:30.000   12.348449257   76.660419378   635.6427   5  30   3.4341   3.6633   7.3510   0.7303   1.8188  -2.4423   0.00    0.0
2023/11/29 06:34:31.000   12.348442803   76.660422353   636.9811   5  30   3.4342   3.6634   7.3509   0.7299   1.8194  -2.4423   0.00    0.0
2023/11/29 06:34:32.000   12.348435985   76.660394503   638.7681   5  31   3.4300   3.5602   7.2181   0.6210   2.1243  -2.3937   0.00    0.0
2023/11/29 06:34:33.000   12.348435767   76.660432479   632.8565   5  29   3.4358   3.7042   7.4608   0.6898   1.6173  -2.4157   0.00    0.0
2023/11/29 06:34:34.000   12.348427487   76.660401436   639.9209   5  30   3.4321   3.5923   7.3112   0.5743   1.9903  -2.3658   0.00    0.0
2023/11/29 06:34:35.000   12.348427496   76.660379674   640.7881   5  31   3.4302   3.5606   7.2179   0.6199   2.1255  -2.3940   0.00    0.0
2023/11/29 06:34:36.000   12.348432429   76.660428456   631.8292   5  29   3.4360   3.7045   7.4605   0.6885   1.6192  -2.4159   0.00    0.0
2023/11/29 06:34:37.000   12.348437837   76.660411934   634.6843   5  30   3.4345   3.6640   7.3504   0.7275   1.8225  -2.4429   0.00    0.0
2023/11/29 06:34:38.000   12.348429873   76.660441741   634.3514   5  29   3.4361   3.7047   7.4603   0.6876   1.6205  -2.4161   0.00    0.0
2023/11/29 06:34:39.000   12.348440094   76.660412854   634.2671   5  30   3.4346   3.6643   7.3502   0.7267   1.8236  -2.4430   0.00    0.0
2023/11/29 06:34:40.000   12.348441406   76.660426107   629.6904   5  29   3.4362   3.7049   7.4601   0.6867   1.6218  -2.4162   0.00    0.0
2023/11/29 06:34:41.000   12.348436735   76.660434788   631.5463   5  29   3.4363   3.7050   7.4600   0.6862   1.6224  -2.4163   0.00    0.0
2023/11/29 06:34:42.000   12.348443977   76.660409108   634.3147   5  30   3.4348   3.6646   7.3500   0.7255   1.8252  -2.4433   0.00    0.0
2023/11/29 06:34:43.000   12.348449064   76.660413502   634.8363   5  30   3.4349   3.6647   7.3499   0.7251   1.8257  -2.4434   0.00    0.0
2023/11/29 06:34:44.000   12.348444917   76.660410165   634.6682   5  30   3.4349   3.6648   7.3498   0.7247   1.8262  -2.4434   0.00    0.0
2023/11/29 06:34:45.000   12.348443669   76.660411113   635.5304   5  30   3.4350   3.6649   7.3497   0.7243   1.8268  -2.4435   0.00    0.0
2023/11/29 06:34:46.000   12.348444755   76.660419049   637.0532   5  30   3.4350   3.6650   7.3496   0.7239   1.8273  -2.4436   0.00    0.0
2023/11/29 06:34:47.000   12.348449774   76.660413912   636.3121   5  29   3.5724   3.7107   7.4439   1.0450   2.0065  -2.1937   0.00    0.0
2023/11/29 06:34:48.000   12.348443107   76.660415895   636.7403   5  30   3.4352   3.6653   7.3495   0.7231   1.8284  -2.4438   0.00    0.0
2023/11/29 06:34:49.000   12.348441307   76.660427702   631.1582   5  29   3.4368   3.7058   7.4593   0.6827   1.6274  -2.4168   0.00    0.0
2023/11/29 06:34:50.000   12.348445345   76.660413515   634.5857   5  30   3.4353   3.6655   7.3493   0.7223   1.8294  -2.4439   0.00    0.0
2023/11/29 06:34:51.000   12.348448543   76.660414624   635.0630   5  30   3.4353   3.6656   7.3492   0.7219   1.8299  -2.4440   0.00    0.0
2023/11/29 06:34:52.000   12.348446676   76.660416713   636.0056   5  30   3.4354   3.6657   7.3491   0.7215   1.8305  -2.4441   0.00    0.0
2023/11/29 06:34:53.000   12.348444931   76.660414950   636.4183   5  30   3.4354   3.6658   7.3490   0.7211   1.8310  -2.4442   0.00    0.0
2023/11/29 06:34:54.000   12.348447362   76.660427458   630.9657   5  29   3.4371   3.7063   7.4588   0.6804   1.6306  -2.4171   0.00    0.0
2023/11/29 06:34:55.000   12.348451323   76.660410769   635.0284   5  30   3.4356   3.6660   7.3489   0.7203   1.8320  -2.4443   0.00    0.0
2023/11/29 06:34:56.000   12.348452848   76.660417034   637.6584   5  29   3.5730   3.7116   7.4429   1.0423   2.0103  -2.1948   0.00    0.0
2023/11/29 06:34:57.000   12.348447271   76.660404791   634.7216   5  30   3.4357   3.6662   7.3487   0.7195   1.8331  -2.4445   0.00    0.0
2023/11/29 06:34:58.000   12.348444828   76.660405562   635.1744   5  30   3.4357   3.6664   7.3486   0.7191   1.8336  -2.4446   0.00    0.0
2023/11/29 06:34:59.000   12.348443646   76.660409893   637.1063   5  29   3.4597   3.7523   7.3506   0.4388   1.8721  -2.4592   0.00    0.0
2023/11/29 06:35:00.000   12.348448467   76.660400102   633.7563   5  29   3.4597   3.7524   7.3506   0.4381   1.8727  -2.4593   0.00    0.0
2023/11/29 06:35:01.000   12.348442953   76.660402300   633.9173   5  30   3.4359   3.6667   7.3484   0.7178   1.8352  -2.4448   0.00    0.0
2023/11/29 06:35:02.000   12.348445117   76.660430247   632.5241   5  29   3.4375   3.7071   7.4580   0.6768   1.6356  -2.4176   0.00    0.0
2023/11/29 06:35:03.000   12.348446863   76.660411232   634.9234   5  30   3.4360   3.6669   7.3482   0.7170   1.8362  -2.4450   0.00    0.0
2023/11/29 06:35:04.000   12.348450731   76.660410687   634.2370   5  30   3.4361   3.6670   7.3481   0.7166   1.8368  -2.4450   0.00    0.0
2023/11/29 06:35:05.000   12.348451963   76.660428695   631.1631   5  29   3.4377   3.7074   7.4577   0.6754   1.6374  -2.4178   0.00    0.0
2023/11/29 06:35:06.000   12.348448237   76.660428886   631.9300   5  29   3.4378   3.7075   7.4576   0.6749   1.6381  -2.4178   0.00    0.0
2023/11/29 06:35:07.000   12.348451638   76.660415404   635.3691   5  30   3.4362   3.6674   7.3478   0.7154   1.8383  -2.4453   0.00    0.0
2023/11/29 06:35:08.000   12.348455688   76.660413060   634.1246   5  30   3.4363   3.6675   7.3478   0.7150   1.8389  -2.4453   0.00    0.0
2023/11/29 06:35:09.000   12.348456165   76.660414702   634.0957   5  30   3.4363   3.6676   7.3477   0.7146   1.8394  -2.4454   0.00    0.0
2023/11/29 06:35:10.000   12.348457753   76.660412236   634.0543   5  30   3.4364   3.6677   7.3476   0.7142   1.8399  -2.4455   0.00    0.0
2023/11/29 06:35:11.000   12.348451125   76.660433129   633.4158   5  29   3.4381   3.7080   7.4571   0.6726   1.6412  -2.4181   0.00    0.0
2023/11/29 06:35:12.000   12.348451602   76.660424570   630.9140   5  29   3.4381   3.7081   7.4570   0.6722   1.6418  -2.4182   0.00    0.0
2023/11/29 06:35:13.000   12.348451960   76.660425319   631.6343   5  29   3.4382   3.7082   7.4569   0.6717   1.6424  -2.4183   0.00    0.0
2023/11/29 06:35:14.000   12.348452457   76.660424904   631.2762   5  29   3.4382   3.7083   7.4568   0.6713   1.6430  -2.4183   0.00    0.0
2023/11/29 06:35:15.000   12.348450873   76.660430347   632.4132   5  29   3.4383   3.7084   7.4567   0.6708   1.6437  -2.4184   0.00    0.0
2023/11/29 06:35:16.000   12.348454292   76.660427236   630.8233   5  29   3.4383   3.7085   7.4566   0.6703   1.6443  -2.4184   0.00    0.0
2023/11/29 06:35:17.000   12.348441353   76.660424522   631.7107   5  29   3.4384   3.7086   7.4565   0.6699   1.6449  -2.4185   0.00    0.0
2023/11/29 06:35:18.000   12.348425230   76.660413710   634.8898   5  30   3.4368   3.6686   7.3469   0.7109   1.8441  -2.4461   0.00    0.0
2023/11/29 06:35:19.000   12.348411923   76.660393939   632.1546   5  30   3.4369   3.6687   7.3468   0.7105   1.8446  -2.4462   0.00    0.0
2023/11/29 06:35:20.000   12.348398745   76.660405309   630.1101   5  29   3.4386   3.7089   7.4562   0.6685   1.6468  -2.4186   0.00    0.0
2023/11/29 06:35:21.000   12.348387457   76.660405385   632.7003   5  30   3.4370   3.6689   7.3466   0.7097   1.8457  -2.4463   0.00    0.0
2023/11/29 06:35:22.000   12.348383776   76.660386731   633.7231   5  30   3.4371   3.6690   7.3466   0.7093   1.8462  -2.4464   0.00    0.0
2023/11/29 06:35:23.000   12.348382019   76.660384897   634.0345   5  30   3.4371   3.6691   7.3465   0.7089   1.8467  -2.4464   0.00    0.0
2023/11/29 06:35:24.000   12.348386361   76.660388103   633.9600   5  30   3.4372   3.6693   7.3464   0.7085   1.8472  -2.4465   0.00    0.0
2023/11/29 06:35:25.000   12.348385472   76.660382931   632.9999   5  30   3.4372   3.6694   7.3463   0.7080   1.8478  -2.4466   0.00    0.0
2023/11/29 06:35:26.000   12.348389058   76.660392112   634.7259   5  30   3.4373   3.6695   7.3462   0.7076   1.8483  -2.4467   0.00    0.0
2023/11/29 06:35:27.000   12.348392884   76.660392887   634.6589   5  30   3.4373   3.6696   7.3461   0.7072   1.8488  -2.4467   0.00    0.0
2023/11/29 06:35:28.000   12.348393714   76.660386727   634.2289   5  30   3.4374   3.6697   7.3460   0.7068   1.8493  -2.4468   0.00    0.0
2023/11/29 06:35:29.000   12.348389067   76.660388036   634.5886   5  30   3.4375   3.6698   7.3460   0.7064   1.8498  -2.4469   0.00    0.0
2023/11/29 06:35:30.000   12.348389147   76.660386733   634.6868   5  30   3.4375   3.6699   7.3459   0.7060   1.8504  -2.4469   0.00    0.0
2023/11/29 06:35:31.000   12.348390391   76.660390020   634.8500   5  30   3.4376   3.6700   7.3458   0.7056   1.8509  -2.4470   0.00    0.0
2023/11/29 06:35:32.000   12.348390381   76.660390155   635.4000   5  30   3.4376   3.6702   7.3457   0.7051   1.8514  -2.4471   0.00    0.0
2023/11/29 06:35:33.000   12.348389760   76.660390216   635.3825   5  30   3.4377   3.6703   7.3456   0.7047   1.8519  -2.4472   0.00    0.0
2023/11/29 06:35:34.000   12.348393703   76.660403037   637.0651   5  30   3.4377   3.6704   7.3455   0.7043   1.8524  -2.4472   0.00    0.0
2023/11/29 06:35:35.000   12.348386791   76.660393238   635.4455   5  30   3.4378   3.6705   7.3454   0.7039   1.8530  -2.4473   0.00    0.0
2023/11/29 06:35:36.000   12.348385081   76.660389284   633.9126   5  30   3.4378   3.6706   7.3454   0.7035   1.8535  -2.4474   0.00    0.0
2023/11/29 06:35:37.000   12.348388589   76.660391866   634.6239   5  30   3.4379   3.6707   7.3453   0.7031   1.8540  -2.4474   0.00    0.0
2023/11/29 06:35:38.000   12.348392200   76.660387650   632.4458   5  30   3.4379   3.6708   7.3452   0.7027   1.8545  -2.4475   0.00    0.0
2023/11/29 06:35:39.000   12.348390042   76.660392424   634.3744   5  30   3.4380   3.6709   7.3451   0.7022   1.8551  -2.4476   0.00    0.0
2023/11/29 06:35:40.000   12.348391930   76.660388720   633.8215   5  30   3.4381   3.6711   7.3450   0.7018   1.8556  -2.4476   0.00    0.0
2023/11/29 06:35:41.000   12.348394210   76.660392458   632.9848   5  30   3.4381   3.6712   7.3449   0.7014   1.8561  -2.4477   0.00    0.0
2023/11/29 06:35:42.000   12.348393389   76.660393761   633.3977   5  30   3.4382   3.6713   7.3448   0.7010   1.8566  -2.4478   0.00    0.0
2023/11/29 06:35:43.000   12.348388453   76.660395127   634.0274   5  30   3.4382   3.6714   7.3448   0.7006   1.8571  -2.4478   0.00    0.0
2023/11/29 06:35:44.000   12.348387404   76.660390447   633.3627   5  30   3.4383   3.6715   7.3447   0.7001   1.8576  -2.4479   0.00    0.0
2023/11/29 06:35:45.000   12.348389409   76.660393561   633.8841   5  28   3.6911   3.8585   7.6419  -0.6300   2.3514  -2.4465   0.00    0.0
2023/11/29 06:35:46.000   12.348391506   76.660400892   635.8250   5  28   3.6912   3.8586   7.6418  -0.6306   2.3518  -2.4466   0.00    0.0
2023/11/29 06:35:47.000   12.348386152   76.660406616   635.8153   5  29   3.5802   3.6757   7.4797   0.8103   1.9223  -2.1402   0.00    0.0
2023/11/29 06:35:48.000   12.348382910   76.660401258   634.3715   5  29   3.5803   3.6758   7.4796   0.8099   1.9228  -2.1403   0.00    0.0
2023/11/29 06:35:49.000   12.348383508   76.660403009   634.2558   5  29   3.5803   3.6759   7.4796   0.8096   1.9234  -2.1403   0.00    0.0
2023/11/29 06:35:50.000   12.348381364   76.660407287   634.0820   5  29   3.5804   3.6761   7.4795   0.8093   1.9239  -2.1404   0.00    0.0
2023/11/29 06:35:51.000   12.348379630   76.660411059   634.7666   5  29   3.5804   3.6762   7.4794   0.8090   1.9244  -2.1405   0.00    0.0
2023/11/29 06:35:52.000   12.348380269   76.660405604   633.9252   5  28   3.7579   3.7259   7.6073   1.1598   2.1324  -1.7309   0.00    0.0
2023/11/29 06:35:53.000   12.348381965   76.660405670   633.3817   5  29   3.5805   3.6764   7.4792   0.8083   1.9255  -2.1407   0.00    0.0
2023/11/29 06:35:54.000   12.348379033   76.660412701   634.5758   5  29   3.5805   3.6765   7.4792   0.8080   1.9260  -2.1408   0.00    0.0
2023/11/29 06:35:55.000   12.348378260   76.660405829   632.7096   5  29   3.5805   3.6766   7.4791   0.8076   1.9265  -2.1409   0.00    0.0
2023/11/29 06:35:56.000   12.348375758   76.660408139   632.1867   5  29   3.5806   3.6768   7.4790   0.8073   1.9270  -2.1409   0.00    0.0
2023/11/29 06:35:57.000   12.348381165   76.660408355   631.1790   5  28   3.6921   3.8599   7.6407  -0.6374   2.3563  -2.4479   0.00    0.0
2023/11/29 06:35:58.000   12.348384513   76.660405892   630.4014   5  27   3.8460   3.9221   7.7884   0.5846   2.5699  -2.0896   0.00    0.0
2023/11/29 06:35:59.000   12.348378852   76.660405445   631.5320   5  28   3.6922   3.8601   7.6405  -0.6386   2.3571  -2.4481   0.00    0.0
2023/11/29 06:36:00.000   12.348386281   76.660407920   630.6874   5  29   3.5807   3.6772   7.4787   0.8060   1.9291  -2.1413   0.00    0.0
2023/11/29 06:36:01.000   12.348384179   76.660404098   630.4267   5  29   3.5808   3.6773   7.4786   0.8056   1.9296  -2.1414   0.00    0.0
2023/11/29 06:36:02.000   12.348383580   76.660401624   630.1718   5  29   3.5808   3.6775   7.4785   0.8053   1.9302  -2.1414   0.00    0.0
2023/11/29 06:36:03.000   12.348384146   76.660404791   631.5610   5  29   3.5808   3.6776   7.4785   0.8050   1.9307  -2.1415   0.00    0.0
2023/11/29 06:36:04.000   12.348383953   76.660407897   632.2686   5  29   3.5809   3.6777   7.4784   0.8046   1.9312  -2.1416   0.00    0.0
2023/11/29 06:36:05.000   12.348385609   76.660409387   632.1455   5  29   3.5809   3.6778   7.4783   0.8043   1.9317  -2.1417   0.00    0.0
2023/11/29 06:36:06.000   12.348383805   76.660407901   632.6982   5  29   3.5809   3.6779   7.4782   0.8040   1.9323  -2.1418   0.00    0.0
2023/11/29 06:36:07.000   12.348381908   76.660409203   634.2133   5  29   3.5810   3.6780   7.4781   0.8036   1.9328  -2.1419   0.00    0.0
2023/11/29 06:36:08.000   12.348377936   76.660408273   633.4856   5  29   3.5810   3.6781   7.4781   0.8033   1.9333  -2.1419   0.00    0.0
2023/11/29 06:36:09.000   12.348386877   76.660410436   634.3604   5  29   3.5810   3.6783   7.4780   0.8030   1.9338  -2.1420   0.00    0.0
2023/11/29 06:36:10.000   12.348388117   76.660403481   631.5749   5  29   3.5811   3.6784   7.4779   0.8026   1.9344  -2.1421   0.00    0.0
2023/11/29 06:36:11.000   12.348381535   76.660410638   632.5359   5  28   3.5851   3.7167   7.5999   0.7441   1.7385  -2.0879   0.00    0.0
2023/11/29 06:36:12.000   12.348388076   76.660404713   633.0105   5  29   3.5811   3.6786   7.4777   0.8020   1.9354  -2.1423   0.00    0.0
2023/11/29 06:36:13.000   12.348387465   76.660401703   632.6393   5  29   3.5812   3.6787   7.4777   0.8016   1.9359  -2.1423   0.00    0.0
2023/11/29 06:36:14.000   12.348384489   76.660403528   632.9527   5  29   3.5812   3.6788   7.4776   0.8013   1.9364  -2.1424   0.00    0.0
2023/11/29 06:36:15.000   12.348388291   76.660404104   632.8760   5  29   3.5812   3.6790   7.4775   0.8010   1.9370  -2.1425   0.00    0.0
2023/11/29 06:36:16.000   12.348382812   76.660399273   632.0246   5  29   3.5813   3.6791   7.4774   0.8006   1.9375  -2.1426   0.00    0.0
2023/11/29 06:36:17.000   12.348385679   76.660403242   633.8204   5  29   3.5813   3.6792   7.4774   0.8003   1.9380  -2.1427   0.00    0.0
2023/11/29 06:36:18.000   12.348392429   76.660408077   633.5354   5  29   3.5814   3.6793   7.4773   0.7999   1.9385  -2.1427   0.00    0.0
2023/11/29 06:36:19.000   12.348388357   76.660407876   634.2943   5  29   3.5814   3.6794   7.4772   0.7996   1.9391  -2.1428   0.00    0.0
2023/11/29 06:36:20.000   12.348391743   76.660403160   632.9719   5  29   3.5814   3.6795   7.4771   0.7993   1.9396  -2.1429   0.00    0.0
2023/11/29 06:36:21.000   12.348392180   76.660405052   634.0951   5  29   3.5815   3.6797   7.4770   0.7989   1.9401  -2.1430   0.00    0.0
2023/11/29 06:36:22.000   12.348393987   76.660403282   633.2250   5  29   3.5815   3.6798   7.4770   0.7986   1.9406  -2.1430   0.00    0.0
2023/11/29 06:36:23.000   12.348399165   76.660410030   634.0990   5  29   3.5815   3.6799   7.4769   0.7983   1.9411  -2.1431   0.00    0.0
2023/11/29 06:36:24.000   12.348397399   76.660414570   635.3088   5  29   3.5816   3.6800   7.4768   0.7979   1.9417  -2.1432   0.00    0.0
2023/11/29 06:36:25.000   12.348394956   76.660412313   633.6904   5  29   3.5816   3.6801   7.4767   0.7976   1.9422  -2.1433   0.00    0.0
2023/11/29 06:36:26.000   12.348392769   76.660404747   631.6995   5  29   3.5816   3.6803   7.4766   0.7973   1.9427  -2.1433   0.00    0.0
2023/11/29 06:36:27.000   12.348396754   76.660410355   633.6740   5  29   3.5817   3.6804   7.4766   0.7969   1.9432  -2.1434   0.00    0.0
2023/11/29 06:36:28.000   12.348390474   76.660411979   634.2750   5  29   3.5817   3.6805   7.4765   0.7966   1.9437  -2.1435   0.00    0.0
2023/11/29 06:36:29.000   12.348391069   76.660416588   634.5233   5  29   3.5817   3.6806   7.4764   0.7962   1.9443  -2.1436   0.00    0.0
2023/11/29 06:36:30.000   12.348398199   76.660411306   633.1527   5  29   3.5818   3.6807   7.4763   0.7959   1.9448  -2.1436   0.00    0.0
2023/11/29 06:36:31.000   12.348398830   76.660414150   633.0229   5  29   3.5818   3.6808   7.4763   0.7956   1.9453  -2.1437   0.00    0.0
2023/11/29 06:36:32.000   12.348399328   76.660411156   631.9410   5  29   3.5818   3.6810   7.4762   0.7952   1.9458  -2.1438   0.00    0.0
2023/11/29 06:36:33.000   12.348398487   76.660412138   633.1147   5  30   3.4912   3.3782   7.3936  -0.7343   1.4726  -2.3416   0.00    0.0
2023/11/29 06:36:34.000   12.348397155   76.660414312   633.1596   5  30   3.4913   3.3782   7.3935  -0.7346   1.4732  -2.3417   0.00    0.0
2023/11/29 06:36:35.000   12.348395453   76.660407531   632.5872   5  30   3.4913   3.3783   7.3934  -0.7350   1.4739  -2.3417   0.00    0.0
2023/11/29 06:36:36.000   12.348397464   76.660410244   632.8259   5  30   3.4914   3.3783   7.3934  -0.7353   1.4745  -2.3417   0.00    0.0
2023/11/29 06:36:37.000   12.348399865   76.660410804   633.3870   5  30   3.4915   3.3784   7.3933  -0.7356   1.4752  -2.3417   0.00    0.0
2023/11/29 06:36:38.000   12.348399318   76.660410802   633.9603   5  30   3.4915   3.3784   7.3932  -0.7359   1.4759  -2.3417   0.00    0.0
2023/11/29 06:36:39.000   12.348400450   76.660410312   634.5038   5  30   3.4916   3.3785   7.3932  -0.7363   1.4765  -2.3418   0.00    0.0
2023/11/29 06:36:40.000   12.348403862   76.660412376   634.7764   5  30   3.4917   3.3785   7.3931  -0.7366   1.4772  -2.3418   0.00    0.0
2023/11/29 06:36:41.000   12.348403600   76.660409579   634.4217   5  30   3.4917   3.3786   7.3930  -0.7369   1.4778  -2.3418   0.00    0.0
2023/11/29 06:36:42.000   12.348406086   76.660410068   634.8305   5  30   3.4918   3.3786   7.3930  -0.7373   1.4785  -2.3418   0.00    0.0
2023/11/29 06:36:43.000   12.348401204   76.660403590   634.5778   5  30   3.4919   3.3787   7.3929  -0.7376   1.4791  -2.3418   0.00    0.0
2023/11/29 06:36:44.000   12.348404388   76.660406328   635.3106   5  30   3.4919   3.3787   7.3928  -0.7379   1.4798  -2.3418   0.00    0.0
2023/11/29 06:36:45.000   12.348403514   76.660402445   634.4690   5  30   3.4920   3.3788   7.3928  -0.7382   1.4804  -2.3419   0.00    0.0
2023/11/29 06:36:46.000   12.348401678   76.660403387   635.4131   5  30   3.4921   3.3788   7.3927  -0.7386   1.4811  -2.3419   0.00    0.0
2023/11/29 06:36:47.000   12.348403952   76.660405197   636.7136   5  30   3.4921   3.3789   7.3926  -0.7389   1.4818  -2.3419   0.00    0.0
2023/11/29 06:36:48.000   12.348395040   76.660400125   636.2407   5  30   3.4922   3.3789   7.3926  -0.7392   1.4824  -2.3419   0.00    0.0
2023/11/29 06:36:49.000   12.348397895   76.660401238   635.9949   5  30   3.4923   3.3790   7.3925  -0.7395   1.4831  -2.3419   0.00    0.0
2023/11/29 06:36:50.000   12.348401613   76.660399677   633.9628   5  30   3.4923   3.3790   7.3924  -0.7399   1.4837  -2.3419   0.00    0.0
2023/11/29 06:36:51.000   12.348397970   76.660402930   635.2934   5  30   3.4924   3.3791   7.3924  -0.7402   1.4844  -2.3420   0.00    0.0
2023/11/29 06:36:52.000   12.348398099   76.660398138   633.0517   5  30   3.4925   3.3791   7.3923  -0.7405   1.4850  -2.3420   0.00    0.0
2023/11/29 06:36:53.000   12.348398048   76.660400724   634.2137   5  30   3.4925   3.3792   7.3922  -0.7408   1.4857  -2.3420   0.00    0.0
2023/11/29 06:36:54.000   12.348394204   76.660398985   633.4705   5  30   3.4926   3.3792   7.3922  -0.7411   1.4863  -2.3420   0.00    0.0
2023/11/29 06:36:55.000   12.348397071   76.660406138   634.4454   5  30   3.4926   3.3793   7.3921  -0.7415   1.4870  -2.3420   0.00    0.0
2023/11/29 06:36:56.000   12.348392375   76.660400866   634.1398   5  30   3.4927   3.3793   7.3920  -0.7418   1.4876  -2.3420   0.00    0.0
2023/11/29 06:36:57.000   12.348393595   76.660406112   634.2466   5  30   3.4928   3.3794   7.3920  -0.7421   1.4883  -2.3421   0.00    0.0
2023/11/29 06:36:58.000   12.348393770   76.660397477   630.6389   5  30   3.4928   3.3794   7.3919  -0.7424   1.4889  -2.3421   0.00    0.0
2023/11/29 06:36:59.000   12.348391704   76.660405084   633.9900   5  30   3.4929   3.3795   7.3918  -0.7428   1.4896  -2.3421   0.00    0.0
2023/11/29 06:37:00.000   12.348394401   76.660398159   632.1319   5  30   3.4930   3.3795   7.3917  -0.7431   1.4902  -2.3421   0.00    0.0
2023/11/29 06:37:01.000   12.348391222   76.660401076   631.3607   5  29   3.4980   3.4168   7.5179  -0.8041   1.2378  -2.2868   0.00    0.0
2023/11/29 06:37:02.000   12.348390748   76.660399067   633.5696   5  30   3.4931   3.3796   7.3916  -0.7437   1.4915  -2.3421   0.00    0.0
2023/11/29 06:37:03.000   12.348393114   76.660392799   631.9092   5  30   3.4932   3.3797   7.3915  -0.7441   1.4922  -2.3421   0.00    0.0
2023/11/29 06:37:04.000   12.348390882   76.660397011   634.8992   5  30   3.4932   3.3797   7.3915  -0.7444   1.4928  -2.3421   0.00    0.0
2023/11/29 06:37:05.000   12.348389458   76.660388911   633.8030   5  30   3.4933   3.3798   7.3914  -0.7447   1.4935  -2.3422   0.00    0.0
2023/11/29 06:37:06.000   12.348388863   76.660389577   634.0580   5  30   3.4934   3.3798   7.3913  -0.7450   1.4941  -2.3422   0.00    0.0
2023/11/29 06:37:07.000   12.348393514   76.660387938   635.2479   5  30   3.4934   3.3799   7.3913  -0.7453   1.4948  -2.3422   0.00    0.0
2023/11/29 06:37:08.000   12.348393221   76.660388218   636.3925   5  30   3.4935   3.3799   7.3912  -0.7457   1.4954  -2.3422   0.00    0.0
2023/11/29 06:37:09.000   12.348391916   76.660378777   624.1006   5  29   3.4986   3.4172   7.5173  -0.8066   1.2445  -2.2867   0.00    0.0
2023/11/29 06:37:10.000   12.348377380   76.660415164   635.7428   5  29   3.4987   3.4172   7.5172  -0.8069   1.2453  -2.2867   0.00    0.0
2023/11/29 06:37:11.000   12.348390752   76.660401441   631.5385   5  29   3.4987   3.4172   7.5172  -0.8072   1.2461  -2.2867   0.00    0.0
2023/11/29 06:37:12.000   12.348396757   76.660390406   636.6075   5  30   3.4938   3.3801   7.3909  -0.7469   1.4980  -2.3422   0.00    0.0
2023/11/29 06:37:13.000   12.348393072   76.660389422   636.3933   5  30   3.4938   3.3802   7.3909  -0.7473   1.4986  -2.3423   0.00    0.0
2023/11/29 06:37:14.000   12.348394228   76.660387451   635.9187   5  30   3.4939   3.3802   7.3908  -0.7476   1.4993  -2.3423   0.00    0.0
2023/11/29 06:37:15.000   12.348394899   76.660385008   637.4126   5  30   3.4940   3.3803   7.3907  -0.7479   1.4999  -2.3423   0.00    0.0
2023/11/29 06:37:16.000   12.348399743   76.660387583   637.7370   5  30   3.4940   3.3803   7.3907  -0.7482   1.5006  -2.3423   0.00    0.0
2023/11/29 06:37:17.000   12.348388398   76.660408570   634.4616   5  28   3.6471   3.4322   7.6315  -0.5728   1.4085  -1.9679   0.00    0.0
2023/11/29 06:37:18.000   12.348389711   76.660407416   632.7969   5  29   3.4992   3.4175   7.5166  -0.8094   1.2519  -2.2866   0.00    0.0
2023/11/29 06:37:19.000   12.348387917   76.660404307   632.1279   5  29   3.4993   3.4176   7.5165  -0.8097   1.2527  -2.2866   0.00    0.0
2023/11/29 06:37:20.000   12.348386719   76.660407523   632.7062   5  29   3.4993   3.4176   7.5165  -0.8100   1.2535  -2.2866   0.00    0.0
2023/11/29 06:37:21.000   12.348385364   76.660402531   630.9579   5  29   3.4994   3.4176   7.5164  -0.8103   1.2544  -2.2866   0.00    0.0
2023/11/29 06:37:22.000   12.348383756   76.660404419   631.3441   5  29   3.4995   3.4177   7.5163  -0.8107   1.2552  -2.2866   0.00    0.0
2023/11/29 06:37:23.000   12.348391417   76.660385995   636.2343   5  30   3.4945   3.3807   7.3902  -0.7505   1.5051  -2.3423   0.00    0.0
2023/11/29 06:37:24.000   12.348388962   76.660386764   636.0690   5  30   3.4945   3.3808   7.3901  -0.7508   1.5057  -2.3423   0.00    0.0
2023/11/29 06:37:25.000   12.348379914   76.660407512   631.9676   5  29   3.4997   3.4178   7.5161  -0.8116   1.2576  -2.2865   0.00    0.0
2023/11/29 06:37:26.000   12.348392178   76.660390087   636.1651   5  30   3.4947   3.3809   7.3900  -0.7514   1.5070  -2.3424   0.00    0.0
2023/11/29 06:37:27.000   12.348394869   76.660395758   637.0529   5  30   3.4947   3.3809   7.3899  -0.7517   1.5076  -2.3424   0.00    0.0
2023/11/29 06:37:28.000   12.348392989   76.660392518   635.6504   5  30   3.4948   3.3810   7.3898  -0.7520   1.5083  -2.3424   0.00    0.0
2023/11/29 06:37:29.000   12.348387271   76.660407541   631.7987   5  29   3.5000   3.4180   7.5157  -0.8128   1.2609  -2.2865   0.00    0.0
2023/11/29 06:37:30.000   12.348386314   76.660410036   632.6693   5  29   3.5000   3.4180   7.5157  -0.8131   1.2617  -2.2865   0.00    0.0
2023/11/29 06:37:31.000   12.348392837   76.660411548   632.4029   5  29   3.5001   3.4181   7.5156  -0.8134   1.2625  -2.2865   0.00    0.0
2023/11/29 06:37:32.000   12.348387944   76.660392805   635.2665   5  30   3.4951   3.3812   7.3896  -0.7533   1.5108  -2.3424   0.00    0.0
2023/11/29 06:37:33.000   12.348389299   76.660396463   637.4776   5  30   3.4951   3.3812   7.3895  -0.7536   1.5115  -2.3424   0.00    0.0
2023/11/29 06:37:34.000   12.348392023   76.660395956   636.2744   5  30   3.4952   3.3813   7.3894  -0.7539   1.5121  -2.3424   0.00    0.0
2023/11/29 06:37:35.000   12.348390056   76.660390916   635.1687   5  30   3.4952   3.3813   7.3894  -0.7543   1.5127  -2.3424   0.00    0.0
2023/11/29 06:37:36.000   12.348392827   76.660394634   635.6848   5  30   3.4953   3.3814   7.3893  -0.7546   1.5134  -2.3424   0.00    0.0
2023/11/29 06:37:37.000   12.348396719   76.660393372   635.4087   5  29   3.5458   3.3887   7.6189  -0.6618   1.3716  -2.5677   0.00    0.0
2023/11/29 06:37:38.000   12.348395216   76.660396402   636.7563   5  29   3.5458   3.3887   7.6188  -0.6622   1.3724  -2.5677   0.00    0.0
2023/11/29 06:37:39.000   12.348395984   76.660397049   635.6259   5  29   3.5459   3.3888   7.6188  -0.6626   1.3731  -2.5677   0.00    0.0
2023/11/29 06:37:40.000   12.348390971   76.660406151   632.6164   5  29   3.5007   3.4184   7.5149  -0.8162   1.2699  -2.2863   0.00    0.0
2023/11/29 06:37:41.000   12.348392668   76.660405136   631.6903   5  29   3.5008   3.4185   7.5148  -0.8165   1.2707  -2.2863   0.00    0.0
2023/11/29 06:37:42.000   12.348391073   76.660405817   632.7619   5  29   3.5008   3.4185   7.5147  -0.8168   1.2715  -2.2863   0.00    0.0
2023/11/29 06:37:43.000   12.348392647   76.660402820   630.5535   5  29   3.5009   3.4185   7.5146  -0.8171   1.2723  -2.2863   0.00    0.0
2023/11/29 06:37:44.000   12.348387997   76.660410433   633.6414   5  29   3.5010   3.4186   7.5146  -0.8174   1.2731  -2.2863   0.00    0.0
2023/11/29 06:37:45.000   12.348385379   76.660409120   632.8798   5  29   3.5010   3.4186   7.5145  -0.8177   1.2739  -2.2862   0.00    0.0
2023/11/29 06:37:46.000   12.348383153   76.660407486   632.6889   5  29   3.5011   3.4187   7.5144  -0.8180   1.2747  -2.2862   0.00    0.0
2023/11/29 06:37:47.000   12.348389894   76.660394136   636.0948   5  30   3.4960   3.3820   7.3885  -0.7580   1.5204  -2.3425   0.00    0.0
2023/11/29 06:37:48.000   12.348386294   76.660406580   632.7583   5  29   3.5012   3.4187   7.5143  -0.8187   1.2763  -2.2862   0.00    0.0
2023/11/29 06:37:49.000   12.348390739   76.660391605   636.3450   5  29   3.5464   3.3893   7.6180  -0.6665   1.3804  -2.5675   0.00    0.0
2023/11/29 06:37:50.000   12.348389699   76.660390357   635.6915   5  29   3.5465   3.3893   7.6179  -0.6669   1.3811  -2.5674   0.00    0.0
2023/11/29 06:37:51.000   12.348387397   76.660392945   635.6267   5  29   3.5465   3.3894   7.6179  -0.6672   1.3819  -2.5674   0.00    0.0
2023/11/29 06:37:52.000   12.348389277   76.660386299   634.2610   5  29   3.5466   3.3894   7.6178  -0.6676   1.3826  -2.5674   0.00    0.0
2023/11/29 06:37:53.000   12.348385021   76.660391952   635.2274   5  30   3.4964   3.3823   7.3881  -0.7599   1.5242  -2.3425   0.00    0.0
2023/11/29 06:37:54.000   12.348390432   76.660393212   635.1056   5  30   3.4965   3.3823   7.3880  -0.7602   1.5248  -2.3425   0.00    0.0
2023/11/29 06:37:55.000   12.348383749   76.660406233   631.8063   5  28   3.5494   3.4295   7.7726  -0.7202   1.0543  -2.5258   0.00    0.0
2023/11/29 06:37:56.000   12.348386986   76.660403157   631.0471   5  29   3.5018   3.4191   7.5136  -0.8211   1.2827  -2.2860   0.00    0.0
2023/11/29 06:37:57.000   12.348389351   76.660389143   636.8493   5  30   3.4966   3.3825   7.3878  -0.7612   1.5267  -2.3425   0.00    0.0
2023/11/29 06:37:58.000   12.348391274   76.660386073   635.6055   5  30   3.4967   3.3825   7.3878  -0.7615   1.5273  -2.3425   0.00    0.0
2023/11/29 06:37:59.000   12.348387156   76.660395057   638.3895   5  29   3.5470   3.3898   7.6172  -0.6703   1.3877  -2.5672   0.00    0.0
2023/11/29 06:38:00.000   12.348388776   76.660394161   637.2857   5  29   3.5470   3.3898   7.6172  -0.6707   1.3884  -2.5672   0.00    0.0
2023/11/29 06:38:01.000   12.348390319   76.660394514   635.9368   5  30   3.4969   3.3827   7.3876  -0.7624   1.5292  -2.3425   0.00    0.0
2023/11/29 06:38:02.000   12.348394596   76.660397799   637.0685   5  30   3.4970   3.3827   7.3875  -0.7627   1.5298  -2.3425   0.00    0.0
2023/11/29 06:38:03.000   12.348390239   76.660398375   635.7277   5  30   3.4970   3.3828   7.3874  -0.7631   1.5305  -2.3424   0.00    0.0
2023/11/29 06:38:04.000   12.348389452   76.660393488   633.2208   5  30   3.4971   3.3828   7.3874  -0.7634   1.5311  -2.3424   0.00    0.0
2023/11/29 06:38:05.000   12.348390722   76.660400146   633.6897   5  30   3.4971   3.3829   7.3873  -0.7637   1.5317  -2.3424   0.00    0.0
2023/11/29 06:38:06.000   12.348390106   76.660399250   631.7258   5  30   3.4972   3.3830   7.3872  -0.7640   1.5323  -2.3424   0.00    0.0
2023/11/29 06:38:07.000   12.348392233   76.660405445   632.4904   5  30   3.4973   3.3830   7.3871  -0.7643   1.5330  -2.3424   0.00    0.0
2023/11/29 06:38:08.000   12.348389425   76.660403239   631.5587   5  30   3.4973   3.3831   7.3871  -0.7646   1.5336  -2.3424   0.00    0.0
2023/11/29 06:38:09.000   12.348385327   76.660407389   632.9133   5  30   3.4974   3.3831   7.3870  -0.7649   1.5342  -2.3424   0.00    0.0
2023/11/29 06:38:10.000   12.348384905   76.660406596   631.7867   5  30   3.4975   3.3832   7.3869  -0.7652   1.5348  -2.3424   0.00    0.0
2023/11/29 06:38:11.000   12.348383324   76.660409174   632.8457   5  30   3.4975   3.3832   7.3869  -0.7655   1.5355  -2.3424   0.00    0.0
2023/11/29 06:38:12.000   12.348387596   76.660406738   631.2034   5  30   3.4976   3.3833   7.3868  -0.7659   1.5361  -2.3424   0.00    0.0
2023/11/29 06:38:13.000   12.348388689   76.660409343   631.3310   5  30   3.4976   3.3833   7.3867  -0.7662   1.5367  -2.3424   0.00    0.0
2023/11/29 06:38:14.000   12.348389405   76.660409324   630.6033   5  30   3.4977   3.3834   7.3867  -0.7665   1.5373  -2.3424   0.00    0.0
2023/11/29 06:38:15.000   12.348385630   76.660408593   630.7996   5  30   3.4978   3.3834   7.3866  -0.7668   1.5380  -2.3424   0.00    0.0
2023/11/29 06:38:16.000   12.348387805   76.660412226   630.0252   5  30   3.4978   3.3835   7.3865  -0.7671   1.5386  -2.3424   0.00    0.0
2023/11/29 06:38:17.000   12.348382348   76.660413166   630.7017   5  30   3.4979   3.3835   7.3865  -0.7674   1.5392  -2.3424   0.00    0.0
2023/11/29 06:38:18.000   12.348381444   76.660412674   630.6923   5  30   3.4980   3.3836   7.3864  -0.7677   1.5398  -2.3424   0.00    0.0
2023/11/29 06:38:19.000   12.348377865   76.660416357   631.3182   5  30   3.4980   3.3836   7.3863  -0.7680   1.5405  -2.3424   0.00    0.0
2023/11/29 06:38:20.000   12.348378659   76.660411170   630.2824   5  30   3.4981   3.3837   7.3862  -0.7683   1.5411  -2.3424   0.00    0.0
2023/11/29 06:38:21.000   12.348379932   76.660412968   629.5914   5  30   3.4981   3.3838   7.3862  -0.7686   1.5417  -2.3424   0.00    0.0
2023/11/29 06:38:22.000   12.348377621   76.660416903   631.6638   5  30   3.4982   3.3838   7.3861  -0.7689   1.5423  -2.3424   0.00    0.0
2023/11/29 06:38:23.000   12.348372679   76.660413164   630.9216   5  30   3.4983   3.3839   7.3860  -0.7693   1.5430  -2.3423   0.00    0.0
2023/11/29 06:38:24.000   12.348373820   76.660413885   631.8388   5  30   3.4983   3.3839   7.3860  -0.7696   1.5436  -2.3423   0.00    0.0
2023/11/29 06:38:25.000   12.348379462   76.660413016   630.9595   5  30   3.4984   3.3840   7.3859  -0.7699   1.5442  -2.3423   0.00    0.0
2023/11/29 06:38:26.000   12.348370829   76.660409782   630.4773   5  30   3.4984   3.3840   7.3858  -0.7702   1.5448  -2.3423   0.00    0.0
2023/11/29 06:38:27.000   12.348377219   76.660410186   630.1833   5  30   3.4985   3.3841   7.3858  -0.7705   1.5454  -2.3423   0.00    0.0
2023/11/29 06:38:28.000   12.348368302   76.660404889   629.5499   5  30   3.4986   3.3841   7.3857  -0.7708   1.5461  -2.3423   0.00    0.0
2023/11/29 06:38:29.000   12.348370828   76.660406731   630.7856   5  30   3.4986   3.3842   7.3856  -0.7711   1.5467  -2.3423   0.00    0.0
